{"schemaVersion":"1.0.0","generatedAt":"2026-07-11T03:41:59Z","sourceGeneratedAt":"2026-06-02T05:46:24Z","attribution":{"title":"DeFlock Dane Shared Networks","url":"https://deflockdane.org/shared-networks/","note":"Public FOIA / transparency-portal releases. Agency sharing links only — not which cameras feed which agency."},"sources":[{"key":"waunakee","label":"Waunakee WI PD","releaseDate":"2026-05-11","shape":"account_csv","rowCount":1581},{"key":"middleton","label":"Middleton WI PD","releaseDate":"2026-04-21","shape":"account_csv","rowCount":1869},{"key":"grand-chute","label":"Grand Chute WI PD","releaseDate":"2026-06-01","shape":"portal_outbound","rowCount":225}],"hubs":[{"id":"waunakee","name":"Waunakee WI PD","shortName":"Waunakee","latitude":43.1919,"longitude":-89.4557,"releaseDate":"2026-05-11","sourceRowCount":1581,"partnerCount":1581},{"id":"middleton","name":"Middleton WI PD","shortName":"Middleton","latitude":43.0972,"longitude":-89.5043,"releaseDate":"2026-04-21","sourceRowCount":1869,"partnerCount":1869},{"id":"grand-chute","name":"Grand Chute WI PD","shortName":"Grand Chute","latitude":44.2786,"longitude":-88.4162,"releaseDate":"2026-06-01","sourceRowCount":225,"partnerCount":225}],"partners":[{"id":"1","name":"Alabama Department of Corrections","state":"AL","entityType":"state_agency","latitude":32.7102,"longitude":-86.76054,"inactive":false,"membership":"middleton+waunakee","hubLinks":[{"hubId":"waunakee","direction":"hubOut","inactive":false},{"hubId":"middleton","direction":"hubOut","inactive":false}]},{"id":"2","name":"Blount County Commission (AL)","state":"AL","entityType":"municipal_gov","latitude":33.20432,"longitude":-86.84995,"inactive":false,"membership":"middleton+waunakee","hubLinks":[{"hubId":"waunakee","direction":"hubOut","inactive":false},{"hubId":"middleton","direction":"hubOut","inactive":false}]},{"id":"3","name":"Cullman County AL SO","state":"AL","entityType":"county_sheriff","latitude":32.57373,"longitude":-87.35819,"inactive":false,"membership":"middleton+waunakee","hubLinks":[{"hubId":"waunakee","direction":"hubOut","inactive":false},{"hubId":"middleton","direction":"hubOut","inactive":false}]},{"id":"4","name":"Glencoe AL PD","state":"AL","entityType":"municipal_police","latitude":32.55961,"longitude":-87.23113,"inactive":false,"membership":"waunakee_only","hubLinks":[{"hubId":"waunakee","direction":"hubIn","inactive":false}]},{"id":"5","name":"Helena AL PD","state":"AL","entityType":"municipal_police","latitude":33.33138,"longitude":-87.17937,"inactive":false,"membership":"middleton_only","hubLinks":[{"hubId":"middleton","direction":"hubOut","inactive":false}]},{"id":"6","name":"Henry County AL SO","state":"AL","entityType":"county_sheriff","latitude":33.29373,"longitude":-86.23348,"inactive":false,"membership":"middleton_only","hubLinks":[{"hubId":"middleton","direction":"hubOut","inactive":false}]},{"id":"7","name":"Hueytown AL PD","state":"AL","entityType":"municipal_police","latitude":32.77608,"longitude":-87.38172,"inactive":false,"membership":"middleton+waunakee","hubLinks":[{"hubId":"waunakee","direction":"hubOut","inactive":false},{"hubId":"middleton","direction":"hubOut","inactive":false}]},{"id":"8","name":"Huntsville AL PD","state":"AL","entityType":"municipal_police","latitude":32.41373,"longitude":-86.92995,"inactive":false,"membership":"middleton+waunakee","hubLinks":[{"hubId":"waunakee","direction":"bidirectional","inactive":false},{"hubId":"middleton","direction":"bidirectional","inactive":false}]},{"id":"9","name":"Jefferson County AL SO","state":"AL","entityType":"county_sheriff","latitude":32.32432,"longitude":-86.97701,"inactive":false,"membership":"middleton+waunakee","hubLinks":[{"hubId":"waunakee","direction":"hubOut","inactive":false},{"hubId":"middleton","direction":"hubOut","inactive":false}]},{"id":"10","name":"Morgan County AL SO","state":"AL","entityType":"county_sheriff","latitude":32.55491,"longitude":-87.07113,"inactive":false,"membership":"middleton+waunakee","hubLinks":[{"hubId":"waunakee","direction":"hubOut","inactive":false},{"hubId":"middleton","direction":"hubOut","inactive":false}]},{"id":"11","name":"Orange Beach AL PD","state":"AL","entityType":"municipal_police","latitude":32.57844,"longitude":-86.44995,"inactive":false,"membership":"middleton+waunakee","hubLinks":[{"hubId":"waunakee","direction":"hubOut","inactive":false},{"hubId":"middleton","direction":"hubOut","inactive":false}]},{"id":"12","name":"Oxford AL PD","state":"AL","entityType":"municipal_police","latitude":32.7102,"longitude":-87.00995,"inactive":false,"membership":"middleton+waunakee","hubLinks":[{"hubId":"waunakee","direction":"hubOut","inactive":false},{"hubId":"middleton","direction":"hubOut","inactive":false}]},{"id":"13","name":"Pine Hill AL PD","state":"AL","entityType":"municipal_police","latitude":32.50314,"longitude":-86.36054,"inactive":false,"membership":"middleton+waunakee","hubLinks":[{"hubId":"waunakee","direction":"hubOut","inactive":false},{"hubId":"middleton","direction":"hubOut","inactive":false}]},{"id":"14","name":"Russell County AL SO","state":"AL","entityType":"county_sheriff","latitude":32.83255,"longitude":-87.2076,"inactive":false,"membership":"middleton+waunakee","hubLinks":[{"hubId":"waunakee","direction":"hubOut","inactive":false},{"hubId":"middleton","direction":"hubOut","inactive":false}]},{"id":"15","name":"Shelby County AL SO","state":"AL","entityType":"county_sheriff","latitude":33.28902,"longitude":-87.19819,"inactive":false,"membership":"middleton+waunakee","hubLinks":[{"hubId":"waunakee","direction":"hubOut","inactive":false},{"hubId":"middleton","direction":"hubOut","inactive":false}]},{"id":"16","name":"Vestavia Hills AL PD","state":"AL","entityType":"municipal_police","latitude":33.03961,"longitude":-86.79819,"inactive":false,"membership":"middleton+waunakee","hubLinks":[{"hubId":"waunakee","direction":"hubOut","inactive":false},{"hubId":"middleton","direction":"hubOut","inactive":false}]},{"id":"17","name":"AR - Alma PD","state":"AR","entityType":"municipal_police","latitude":34.69441,"longitude":-92.80842,"inactive":false,"membership":"middleton+waunakee","hubLinks":[{"hubId":"waunakee","direction":"hubOut","inactive":false},{"hubId":"middleton","direction":"hubOut","inactive":false}]},{"id":"18","name":"Cabot AR PD","state":"AR","entityType":"municipal_police","latitude":34.73676,"longitude":-92.02724,"inactive":false,"membership":"middleton+waunakee","hubLinks":[{"hubId":"waunakee","direction":"hubOut","inactive":false},{"hubId":"middleton","direction":"hubOut","inactive":false}]},{"id":"19","name":"Harrison AR PD","state":"AR","entityType":"municipal_police","latitude":35.06617,"longitude":-92.97312,"inactive":false,"membership":"middleton_only","hubLinks":[{"hubId":"middleton","direction":"hubIn","inactive":false}]},{"id":"20","name":"Little Rock AR PD","state":"AR","entityType":"municipal_police","latitude":35.52265,"longitude":-92.02253,"inactive":false,"membership":"middleton+waunakee","hubLinks":[{"hubId":"waunakee","direction":"hubOut","inactive":false},{"hubId":"middleton","direction":"hubOut","inactive":false}]},{"id":"21","name":"Lonoke County AR SO","state":"AR","entityType":"county_sheriff","latitude":34.89206,"longitude":-92.62018,"inactive":false,"membership":"middleton+waunakee","hubLinks":[{"hubId":"waunakee","direction":"hubOut","inactive":false},{"hubId":"middleton","direction":"hubOut","inactive":false}]},{"id":"22","name":"Manila AR PD","state":"AR","entityType":"municipal_police","latitude":34.93441,"longitude":-92.52606,"inactive":false,"membership":"middleton_only","hubLinks":[{"hubId":"middleton","direction":"hubOut","inactive":false}]},{"id":"23","name":"Mountain Home AR PD","state":"AR","entityType":"municipal_police","latitude":34.76029,"longitude":-92.52606,"inactive":false,"membership":"middleton+waunakee","hubLinks":[{"hubId":"waunakee","direction":"hubOut","inactive":false},{"hubId":"middleton","direction":"bidirectional","inactive":false}]},{"id":"24","name":"Pea Ridge AR PD","state":"AR","entityType":"municipal_police","latitude":35.28265,"longitude":-92.72371,"inactive":false,"membership":"middleton+waunakee","hubLinks":[{"hubId":"waunakee","direction":"hubOut","inactive":false},{"hubId":"middleton","direction":"hubOut","inactive":false}]},{"id":"25","name":"Pocahontas AR PD","state":"AR","entityType":"municipal_police","latitude":35.23088,"longitude":-92.19665,"inactive":false,"membership":"middleton+waunakee","hubLinks":[{"hubId":"waunakee","direction":"hubIn","inactive":false},{"hubId":"middleton","direction":"hubIn","inactive":false}]},{"id":"26","name":"Randolph County AR SO","state":"AR","entityType":"county_sheriff","latitude":34.81676,"longitude":-92.23901,"inactive":false,"membership":"middleton_only","hubLinks":[{"hubId":"middleton","direction":"hubIn","inactive":false}]},{"id":"27","name":"Rogers AR PD","state":"AR","entityType":"municipal_police","latitude":34.85441,"longitude":-92.94489,"inactive":false,"membership":"middleton+waunakee","hubLinks":[{"hubId":"waunakee","direction":"hubOut","inactive":false},{"hubId":"middleton","direction":"hubOut","inactive":false}]},{"id":"28","name":"Sheridan AR PD","state":"AR","entityType":"municipal_police","latitude":34.78853,"longitude":-91.9143,"inactive":false,"membership":"middleton+waunakee","hubLinks":[{"hubId":"waunakee","direction":"hubOut","inactive":false},{"hubId":"middleton","direction":"hubOut","inactive":false}]},{"id":"29","name":"Sherwood AR PD","state":"AR","entityType":"municipal_police","latitude":34.61912,"longitude":-92.88371,"inactive":false,"membership":"middleton+waunakee","hubLinks":[{"hubId":"waunakee","direction":"hubOut","inactive":false},{"hubId":"middleton","direction":"hubOut","inactive":false}]},{"id":"30","name":"Casa Grande AZ PD","state":"AZ","entityType":"municipal_police","latitude":33.59094,"longitude":-111.67828,"inactive":false,"membership":"middleton+waunakee","hubLinks":[{"hubId":"waunakee","direction":"hubOut","inactive":false},{"hubId":"middleton","direction":"hubOut","inactive":false}]},{"id":"31","name":"City of Sierra Vista AZ","state":"AZ","entityType":"municipal_gov","latitude":34.23564,"longitude":-111.89004,"inactive":false,"membership":"middleton+waunakee","hubLinks":[{"hubId":"waunakee","direction":"hubOut","inactive":false},{"hubId":"middleton","direction":"hubOut","inactive":false}]},{"id":"32","name":"La Paz County AZ SO","state":"AZ","entityType":"county_sheriff","latitude":34.19329,"longitude":-111.2971,"inactive":false,"membership":"middleton+waunakee","hubLinks":[{"hubId":"waunakee","direction":"hubOut","inactive":false},{"hubId":"middleton","direction":"hubOut","inactive":false}]},{"id":"33","name":"Mohave County AZ SO","state":"AZ","entityType":"county_sheriff","latitude":34.06152,"longitude":-110.88769,"inactive":false,"membership":"middleton+waunakee","hubLinks":[{"hubId":"waunakee","direction":"hubOut","inactive":false},{"hubId":"middleton","direction":"hubOut","inactive":false}]},{"id":"34","name":"Prescott AZ PD","state":"AZ","entityType":"municipal_police","latitude":33.76035,"longitude":-110.95357,"inactive":false,"membership":"middleton+waunakee","hubLinks":[{"hubId":"waunakee","direction":"hubOut","inactive":false},{"hubId":"middleton","direction":"hubOut","inactive":false}]},{"id":"35","name":"Saint Johns AZ PD","state":"AZ","entityType":"municipal_police","latitude":33.87799,"longitude":-111.9371,"inactive":false,"membership":"middleton+waunakee","hubLinks":[{"hubId":"waunakee","direction":"hubOut","inactive":false},{"hubId":"middleton","direction":"hubOut","inactive":false}]},{"id":"36","name":"Show Low AZ PD","state":"AZ","entityType":"municipal_police","latitude":33.68505,"longitude":-111.25475,"inactive":false,"membership":"middleton+waunakee","hubLinks":[{"hubId":"waunakee","direction":"hubOut","inactive":false},{"hubId":"middleton","direction":"hubOut","inactive":false}]},{"id":"37","name":"California Highway Patrol","state":"CA","entityType":"state_agency","latitude":36.09032,"longitude":-119.82509,"inactive":false,"membership":"middleton+waunakee","hubLinks":[{"hubId":"waunakee","direction":"hubOut","inactive":false},{"hubId":"middleton","direction":"hubOut","inactive":false}]},{"id":"38","name":"El Cajon CA PD","state":"CA","entityType":"municipal_police","latitude":36.33503,"longitude":-119.48627,"inactive":false,"membership":"middleton+waunakee","hubLinks":[{"hubId":"waunakee","direction":"hubOut","inactive":false},{"hubId":"middleton","direction":"hubOut","inactive":false}]},{"id":"39","name":"Irvine CA PD","state":"CA","entityType":"municipal_police","latitude":35.56797,"longitude":-119.59921,"inactive":false,"membership":"middleton+waunakee","hubLinks":[{"hubId":"waunakee","direction":"hubOut","inactive":false},{"hubId":"middleton","direction":"hubOut","inactive":false}]},{"id":"40","name":"Palm Springs CA PD","state":"CA","entityType":"municipal_police","latitude":36.51856,"longitude":-119.53803,"inactive":false,"membership":"middleton+waunakee","hubLinks":[{"hubId":"waunakee","direction":"hubOut","inactive":false},{"hubId":"middleton","direction":"hubOut","inactive":false}]},{"id":"41","name":"Riverside County CA District Attorney","state":"CA","entityType":"prosecutor","latitude":35.80326,"longitude":-119.59921,"inactive":false,"membership":"middleton+waunakee","hubLinks":[{"hubId":"waunakee","direction":"hubOut","inactive":false},{"hubId":"middleton","direction":"hubOut","inactive":false}]},{"id":"42","name":"Santa Ana CA PD","state":"CA","entityType":"municipal_police","latitude":36.05738,"longitude":-119.94745,"inactive":false,"membership":"middleton+waunakee","hubLinks":[{"hubId":"waunakee","direction":"hubOut","inactive":false},{"hubId":"middleton","direction":"hubOut","inactive":false}]},{"id":"43","name":"Yreka CA PD","state":"CA","entityType":"municipal_police","latitude":35.8362,"longitude":-119.32627,"inactive":false,"membership":"waunakee_only","hubLinks":[{"hubId":"waunakee","direction":"hubOut","inactive":false}]},{"id":"44","name":"CO - Rangely PD","state":"CO","entityType":"municipal_police","latitude":38.99158,"longitude":-104.7911,"inactive":false,"membership":"middleton+waunakee","hubLinks":[{"hubId":"waunakee","direction":"hubOut","inactive":false},{"hubId":"middleton","direction":"hubOut","inactive":false}]},{"id":"45","name":"Colorado State Patrol","state":"CO","entityType":"state_agency","latitude":39.06687,"longitude":-105.80287,"inactive":false,"membership":"middleton+waunakee","hubLinks":[{"hubId":"waunakee","direction":"hubOut","inactive":false},{"hubId":"middleton","direction":"hubOut","inactive":false}]},{"id":"46","name":"Durango CO PD","state":"CO","entityType":"municipal_police","latitude":38.63393,"longitude":-104.72522,"inactive":false,"membership":"middleton+waunakee","hubLinks":[{"hubId":"waunakee","direction":"hubOut","inactive":false},{"hubId":"middleton","direction":"hubOut","inactive":false}]},{"id":"47","name":"Fort Collins Police Services (FCPS)","state":"CO","entityType":"municipal_police","latitude":38.6904,"longitude":-105.57228,"inactive":false,"membership":"middleton+waunakee","hubLinks":[{"hubId":"waunakee","direction":"hubOut","inactive":false},{"hubId":"middleton","direction":"hubOut","inactive":false}]},{"id":"48","name":"Loveland CO PD","state":"CO","entityType":"municipal_police","latitude":39.17511,"longitude":-105.9064,"inactive":false,"membership":"middleton+waunakee","hubLinks":[{"hubId":"waunakee","direction":"hubOut","inactive":false},{"hubId":"middleton","direction":"hubOut","inactive":false}]},{"id":"49","name":"Summit County Sheriff's Office (CO)","state":"CO","entityType":"county_sheriff","latitude":38.52569,"longitude":-105.80287,"inactive":false,"membership":"middleton+waunakee","hubLinks":[{"hubId":"waunakee","direction":"hubOut","inactive":false},{"hubId":"middleton","direction":"hubOut","inactive":false}]},{"id":"50","name":"Thornton CO PD","state":"CO","entityType":"municipal_police","latitude":38.58216,"longitude":-105.43581,"inactive":false,"membership":"middleton+waunakee","hubLinks":[{"hubId":"waunakee","direction":"bidirectional","inactive":false},{"hubId":"middleton","direction":"bidirectional","inactive":false}]},{"id":"51","name":"Windsor CO PD","state":"CO","entityType":"municipal_police","latitude":38.47393,"longitude":-105.78405,"inactive":false,"membership":"middleton+waunakee","hubLinks":[{"hubId":"waunakee","direction":"hubOut","inactive":false},{"hubId":"middleton","direction":"hubOut","inactive":false}]},{"id":"52","name":"New Canaan CT PD","state":"CT","entityType":"municipal_police","latitude":41.30366,"longitude":-72.38125,"inactive":false,"membership":"middleton+waunakee","hubLinks":[{"hubId":"waunakee","direction":"hubOut","inactive":false},{"hubId":"middleton","direction":"hubOut","inactive":false}]},{"id":"53","name":"Town of Groton CT PD","state":"CT","entityType":"municipal_police","latitude":41.18602,"longitude":-72.94125,"inactive":false,"membership":"middleton+waunakee","hubLinks":[{"hubId":"waunakee","direction":"hubOut","inactive":false},{"hubId":"middleton","direction":"hubOut","inactive":false}]},{"id":"54","name":"Boynton Beach FL PD","state":"FL","entityType":"municipal_police","latitude":27.38746,"longitude":-81.33619,"inactive":false,"membership":"middleton+waunakee","hubLinks":[{"hubId":"waunakee","direction":"hubOut","inactive":false},{"hubId":"middleton","direction":"hubOut","inactive":false}]},{"id":"55","name":"Brevard County FL SO","state":"FL","entityType":"county_sheriff","latitude":27.17569,"longitude":-81.29855,"inactive":false,"membership":"middleton+waunakee","hubLinks":[{"hubId":"waunakee","direction":"hubOut","inactive":false},{"hubId":"middleton","direction":"hubOut","inactive":false}]},{"id":"56","name":"Clearwater FL PD","state":"FL","entityType":"municipal_police","latitude":27.72157,"longitude":-81.64678,"inactive":false,"membership":"middleton+waunakee","hubLinks":[{"hubId":"waunakee","direction":"hubIn","inactive":false},{"hubId":"middleton","direction":"hubIn","inactive":false}]},{"id":"57","name":"Collier County FL SO","state":"FL","entityType":"county_sheriff","latitude":28.10746,"longitude":-82.02796,"inactive":false,"membership":"waunakee_only","hubLinks":[{"hubId":"waunakee","direction":"hubIn","inactive":false}]},{"id":"58","name":"Columbia County FL SO","state":"FL","entityType":"state_agency","latitude":27.62746,"longitude":-82.24914,"inactive":false,"membership":"middleton+waunakee","hubLinks":[{"hubId":"waunakee","direction":"hubOut","inactive":false},{"hubId":"middleton","direction":"hubOut","inactive":false}]},{"id":"59","name":"Escambia County FL SO","state":"FL","entityType":"state_agency","latitude":27.45804,"longitude":-82.14561,"inactive":false,"membership":"middleton+waunakee","hubLinks":[{"hubId":"waunakee","direction":"hubOut","inactive":false},{"hubId":"middleton","direction":"hubOut","inactive":false}]},{"id":"60","name":"Fort Pierce FL PD","state":"FL","entityType":"municipal_police","latitude":27.43451,"longitude":-81.11031,"inactive":false,"membership":"middleton+waunakee","hubLinks":[{"hubId":"waunakee","direction":"hubOut","inactive":false},{"hubId":"middleton","direction":"hubOut","inactive":false}]},{"id":"61","name":"Gulf Breeze FL PD","state":"FL","entityType":"municipal_police","latitude":28.1451,"longitude":-82.09384,"inactive":false,"membership":"middleton+waunakee","hubLinks":[{"hubId":"waunakee","direction":"hubOut","inactive":false},{"hubId":"middleton","direction":"hubOut","inactive":false}]},{"id":"62","name":"Hillsborough County FL SO","state":"FL","entityType":"county_sheriff","latitude":27.77334,"longitude":-81.4209,"inactive":false,"membership":"middleton+waunakee","hubLinks":[{"hubId":"waunakee","direction":"hubOut","inactive":false},{"hubId":"middleton","direction":"hubOut","inactive":false}]},{"id":"63","name":"Lady Lake FL PD","state":"FL","entityType":"municipal_police","latitude":28.19216,"longitude":-81.91972,"inactive":false,"membership":"middleton+waunakee","hubLinks":[{"hubId":"waunakee","direction":"hubOut","inactive":false},{"hubId":"middleton","direction":"hubOut","inactive":false}]},{"id":"64","name":"Lake City FL PD","state":"FL","entityType":"municipal_police","latitude":27.94746,"longitude":-81.63267,"inactive":false,"membership":"middleton+waunakee","hubLinks":[{"hubId":"waunakee","direction":"hubOut","inactive":false},{"hubId":"middleton","direction":"hubOut","inactive":false}]},{"id":"65","name":"Lakeland FL PD","state":"FL","entityType":"municipal_police","latitude":27.24157,"longitude":-81.62796,"inactive":false,"membership":"middleton+waunakee","hubLinks":[{"hubId":"waunakee","direction":"hubOut","inactive":false},{"hubId":"middleton","direction":"hubOut","inactive":false}]},{"id":"66","name":"Lantana FL PD","state":"FL","entityType":"municipal_police","latitude":27.43922,"longitude":-81.2609,"inactive":false,"membership":"middleton+waunakee","hubLinks":[{"hubId":"waunakee","direction":"hubOut","inactive":false},{"hubId":"middleton","direction":"hubOut","inactive":false}]},{"id":"67","name":"Miami-Dade FL SO","state":"FL","entityType":"county_sheriff","latitude":27.50981,"longitude":-81.30325,"inactive":false,"membership":"middleton+waunakee","hubLinks":[{"hubId":"waunakee","direction":"hubOut","inactive":false},{"hubId":"middleton","direction":"hubOut","inactive":false}]},{"id":"68","name":"Niceville FL PD","state":"FL","entityType":"municipal_police","latitude":27.92863,"longitude":-82.17384,"inactive":false,"membership":"middleton+waunakee","hubLinks":[{"hubId":"waunakee","direction":"hubOut","inactive":false},{"hubId":"middleton","direction":"hubOut","inactive":false}]},{"id":"69","name":"Orange County FL SO","state":"FL","entityType":"county_sheriff","latitude":28.10275,"longitude":-81.85384,"inactive":false,"membership":"middleton+waunakee","hubLinks":[{"hubId":"waunakee","direction":"hubIn","inactive":false},{"hubId":"middleton","direction":"hubIn","inactive":false}]},{"id":"70","name":"Orlando FL PD","state":"FL","entityType":"municipal_police","latitude":28.36628,"longitude":-81.86325,"inactive":false,"membership":"middleton+waunakee","hubLinks":[{"hubId":"waunakee","direction":"hubOut","inactive":false},{"hubId":"middleton","direction":"hubOut","inactive":false}]},{"id":"71","name":"Palm Beach County FL SO","state":"FL","entityType":"county_sheriff","latitude":27.76393,"longitude":-82.12678,"inactive":false,"membership":"middleton+waunakee","hubLinks":[{"hubId":"waunakee","direction":"hubOut","inactive":false},{"hubId":"middleton","direction":"hubOut","inactive":false}]},{"id":"72","name":"Pembroke Pines FL PD","state":"FL","entityType":"municipal_police","latitude":27.80157,"longitude":-82.12678,"inactive":false,"membership":"middleton+waunakee","hubLinks":[{"hubId":"waunakee","direction":"hubOut","inactive":false},{"hubId":"middleton","direction":"hubOut","inactive":false}]},{"id":"73","name":"Pinellas County FL SO","state":"FL","entityType":"county_sheriff","latitude":27.87216,"longitude":-82.25855,"inactive":false,"membership":"middleton+waunakee","hubLinks":[{"hubId":"waunakee","direction":"hubOut","inactive":false},{"hubId":"middleton","direction":"hubOut","inactive":false}]},{"id":"74","name":"Pinellas Park FL PD","state":"FL","entityType":"municipal_police","latitude":28.27216,"longitude":-81.82561,"inactive":false,"membership":"middleton+waunakee","hubLinks":[{"hubId":"waunakee","direction":"hubOut","inactive":false},{"hubId":"middleton","direction":"hubOut","inactive":false}]},{"id":"75","name":"Santa Rosa County FL SO","state":"FL","entityType":"county_sheriff","latitude":28.30981,"longitude":-81.79267,"inactive":false,"membership":"middleton+waunakee","hubLinks":[{"hubId":"waunakee","direction":"hubOut","inactive":false},{"hubId":"middleton","direction":"hubOut","inactive":false}]},{"id":"76","name":"Sarasota FL PD","state":"FL","entityType":"municipal_police","latitude":28.32863,"longitude":-81.91972,"inactive":false,"membership":"middleton+waunakee","hubLinks":[{"hubId":"waunakee","direction":"bidirectional","inactive":false},{"hubId":"middleton","direction":"bidirectional","inactive":false}]},{"id":"77","name":"Seminole County FL SO","state":"FL","entityType":"county_sheriff","latitude":27.95687,"longitude":-81.63737,"inactive":false,"membership":"middleton+waunakee","hubLinks":[{"hubId":"waunakee","direction":"hubOut","inactive":false},{"hubId":"middleton","direction":"hubOut","inactive":false}]},{"id":"78","name":"Springfield FL PD","state":"FL","entityType":"municipal_police","latitude":27.41098,"longitude":-81.55267,"inactive":false,"membership":"middleton+waunakee","hubLinks":[{"hubId":"waunakee","direction":"hubOut","inactive":false},{"hubId":"middleton","direction":"hubOut","inactive":false}]},{"id":"79","name":"Tallahassee FL PD","state":"FL","entityType":"municipal_police","latitude":27.88157,"longitude":-81.51972,"inactive":false,"membership":"middleton+waunakee","hubLinks":[{"hubId":"waunakee","direction":"hubOut","inactive":false},{"hubId":"middleton","direction":"hubOut","inactive":false}]},{"id":"80","name":"Tampa FL PD","state":"FL","entityType":"municipal_police","latitude":27.5051,"longitude":-81.96678,"inactive":false,"membership":"middleton+waunakee","hubLinks":[{"hubId":"waunakee","direction":"hubOut","inactive":false},{"hubId":"middleton","direction":"hubOut","inactive":false}]},{"id":"81","name":"Tarpon Springs FL PD","state":"FL","entityType":"municipal_police","latitude":27.55687,"longitude":-82.18325,"inactive":false,"membership":"middleton+waunakee","hubLinks":[{"hubId":"waunakee","direction":"hubOut","inactive":false},{"hubId":"middleton","direction":"hubOut","inactive":false}]},{"id":"82","name":"Titusville FL PD","state":"FL","entityType":"municipal_police","latitude":27.93804,"longitude":-81.76914,"inactive":false,"membership":"waunakee_only","hubLinks":[{"hubId":"waunakee","direction":"hubIn","inactive":false}]},{"id":"83","name":"Walton County FL SO","state":"FL","entityType":"county_sheriff","latitude":28.04628,"longitude":-81.41619,"inactive":false,"membership":"middleton+waunakee","hubLinks":[{"hubId":"waunakee","direction":"hubOut","inactive":false},{"hubId":"middleton","direction":"hubOut","inactive":false}]},{"id":"84","name":"Wilton Manors FL PD","state":"FL","entityType":"municipal_police","latitude":27.48628,"longitude":-81.34561,"inactive":false,"membership":"middleton+waunakee","hubLinks":[{"hubId":"waunakee","direction":"hubOut","inactive":false},{"hubId":"middleton","direction":"hubOut","inactive":false}]},{"id":"85","name":"Acworth GA PD","state":"GA","entityType":"municipal_police","latitude":33.28768,"longitude":-83.5466,"inactive":false,"membership":"middleton+waunakee","hubLinks":[{"hubId":"waunakee","direction":"hubOut","inactive":false},{"hubId":"middleton","direction":"hubOut","inactive":false}]},{"id":"86","name":"Baldwin County GA SO","state":"GA","entityType":"county_sheriff","latitude":32.75591,"longitude":-83.88543,"inactive":false,"membership":"middleton+waunakee","hubLinks":[{"hubId":"waunakee","direction":"hubIn","inactive":false},{"hubId":"middleton","direction":"hubIn","inactive":false}]},{"id":"87","name":"Bartow County GA SO","state":"GA","entityType":"county_sheriff","latitude":33.33003,"longitude":-83.25484,"inactive":false,"membership":"middleton+waunakee","hubLinks":[{"hubId":"waunakee","direction":"hubOut","inactive":false},{"hubId":"middleton","direction":"hubOut","inactive":false}]},{"id":"88","name":"Blackshear GA PD","state":"GA","entityType":"municipal_police","latitude":33.09474,"longitude":-83.5466,"inactive":false,"membership":"middleton+waunakee","hubLinks":[{"hubId":"waunakee","direction":"hubOut","inactive":false},{"hubId":"middleton","direction":"hubOut","inactive":false}]},{"id":"89","name":"Bulloch County GA SO","state":"GA","entityType":"county_sheriff","latitude":33.40532,"longitude":-83.71602,"inactive":false,"membership":"middleton+waunakee","hubLinks":[{"hubId":"waunakee","direction":"hubOut","inactive":false},{"hubId":"middleton","direction":"hubOut","inactive":false}]},{"id":"90","name":"Byron GA PD","state":"GA","entityType":"municipal_police","latitude":32.93474,"longitude":-83.09013,"inactive":false,"membership":"middleton+waunakee","hubLinks":[{"hubId":"waunakee","direction":"hubOut","inactive":false},{"hubId":"middleton","direction":"hubOut","inactive":false}]},{"id":"91","name":"Carroll County GA SO","state":"GA","entityType":"county_sheriff","latitude":32.57709,"longitude":-83.4666,"inactive":false,"membership":"middleton+waunakee","hubLinks":[{"hubId":"waunakee","direction":"hubOut","inactive":false},{"hubId":"middleton","direction":"hubOut","inactive":false}]},{"id":"92","name":"Cartersville GA PD","state":"GA","entityType":"municipal_police","latitude":33.05238,"longitude":-83.93719,"inactive":false,"membership":"middleton+waunakee","hubLinks":[{"hubId":"waunakee","direction":"hubOut","inactive":false},{"hubId":"middleton","direction":"hubOut","inactive":false}]},{"id":"93","name":"Cedartown GA PD","state":"GA","entityType":"municipal_police","latitude":32.95827,"longitude":-83.9419,"inactive":false,"membership":"middleton+waunakee","hubLinks":[{"hubId":"waunakee","direction":"hubOut","inactive":false},{"hubId":"middleton","direction":"hubOut","inactive":false}]},{"id":"94","name":"Cherokee County GA DA","state":"GA","entityType":"prosecutor","latitude":33.50885,"longitude":-83.23602,"inactive":false,"membership":"middleton+waunakee","hubLinks":[{"hubId":"waunakee","direction":"hubOut","inactive":false},{"hubId":"middleton","direction":"hubOut","inactive":false}]},{"id":"95","name":"Cobb County GA PD","state":"GA","entityType":"municipal_police","latitude":33.25474,"longitude":-83.90425,"inactive":false,"membership":"middleton+waunakee","hubLinks":[{"hubId":"waunakee","direction":"bidirectional","inactive":false},{"hubId":"middleton","direction":"bidirectional","inactive":false}]},{"id":"96","name":"Colquitt County GA SO","state":"GA","entityType":"county_sheriff","latitude":33.01944,"longitude":-84.12072,"inactive":false,"membership":"middleton+waunakee","hubLinks":[{"hubId":"waunakee","direction":"hubOut","inactive":false},{"hubId":"middleton","direction":"hubOut","inactive":false}]},{"id":"97","name":"Covington GA PD","state":"GA","entityType":"municipal_police","latitude":33.44768,"longitude":-83.2266,"inactive":false,"membership":"middleton+waunakee","hubLinks":[{"hubId":"waunakee","direction":"hubOut","inactive":false},{"hubId":"middleton","direction":"hubOut","inactive":false}]},{"id":"98","name":"Crisp County GA SO","state":"GA","entityType":"county_sheriff","latitude":32.63356,"longitude":-83.21249,"inactive":false,"membership":"middleton+waunakee","hubLinks":[{"hubId":"waunakee","direction":"hubOut","inactive":false},{"hubId":"middleton","direction":"hubOut","inactive":false}]},{"id":"99","name":"Cumming GA PD","state":"GA","entityType":"municipal_police","latitude":33.09944,"longitude":-84.09719,"inactive":false,"membership":"middleton+waunakee","hubLinks":[{"hubId":"waunakee","direction":"hubOut","inactive":false},{"hubId":"middleton","direction":"hubOut","inactive":false}]},{"id":"100","name":"Floyd County GA PD","state":"GA","entityType":"municipal_police","latitude":33.25474,"longitude":-83.83366,"inactive":false,"membership":"middleton+waunakee","hubLinks":[{"hubId":"waunakee","direction":"hubOut","inactive":false},{"hubId":"middleton","direction":"hubOut","inactive":false}]},{"id":"101","name":"Georgia Dept. of Corrections Intelligence Unit (GA)","state":"GA","entityType":"state_agency","latitude":32.54415,"longitude":-83.20778,"inactive":false,"membership":"middleton+waunakee","hubLinks":[{"hubId":"waunakee","direction":"hubOut","inactive":false},{"hubId":"middleton","direction":"hubOut","inactive":false}]},{"id":"102","name":"Jackson County GA SO","state":"GA","entityType":"county_sheriff","latitude":32.69944,"longitude":-83.6266,"inactive":false,"membership":"middleton+waunakee","hubLinks":[{"hubId":"waunakee","direction":"hubOut","inactive":false},{"hubId":"middleton","direction":"hubOut","inactive":false}]},{"id":"103","name":"Jesup GA PD","state":"GA","entityType":"municipal_police","latitude":32.76532,"longitude":-83.87131,"inactive":false,"membership":"middleton+waunakee","hubLinks":[{"hubId":"waunakee","direction":"hubOut","inactive":false},{"hubId":"middleton","direction":"hubOut","inactive":false}]},{"id":"104","name":"Kennesaw GA PD","state":"GA","entityType":"municipal_police","latitude":32.88297,"longitude":-83.08543,"inactive":false,"membership":"middleton+waunakee","hubLinks":[{"hubId":"waunakee","direction":"hubOut","inactive":false},{"hubId":"middleton","direction":"hubOut","inactive":false}]},{"id":"105","name":"Kennesaw State University GA PD","state":"GA","entityType":"university","latitude":32.52532,"longitude":-83.85249,"inactive":false,"membership":"middleton+waunakee","hubLinks":[{"hubId":"waunakee","direction":"hubOut","inactive":false},{"hubId":"middleton","direction":"hubOut","inactive":false}]},{"id":"106","name":"Lee County GA SO","state":"GA","entityType":"county_sheriff","latitude":32.77944,"longitude":-84.03131,"inactive":false,"membership":"middleton+waunakee","hubLinks":[{"hubId":"waunakee","direction":"hubOut","inactive":false},{"hubId":"middleton","direction":"hubOut","inactive":false}]},{"id":"107","name":"Lowndes County GA SO","state":"GA","entityType":"county_sheriff","latitude":32.68062,"longitude":-83.91366,"inactive":false,"membership":"middleton+waunakee","hubLinks":[{"hubId":"waunakee","direction":"hubOut","inactive":false},{"hubId":"middleton","direction":"hubOut","inactive":false}]},{"id":"108","name":"Milton GA PD","state":"GA","entityType":"municipal_police","latitude":33.1418,"longitude":-83.98425,"inactive":false,"membership":"waunakee_only","hubLinks":[{"hubId":"waunakee","direction":"hubIn","inactive":false}]},{"id":"109","name":"Morrow GA PD","state":"GA","entityType":"municipal_police","latitude":32.51121,"longitude":-83.24543,"inactive":false,"membership":"middleton+waunakee","hubLinks":[{"hubId":"waunakee","direction":"hubOut","inactive":false},{"hubId":"middleton","direction":"hubOut","inactive":false}]},{"id":"110","name":"Newton County GA SO","state":"GA","entityType":"county_sheriff","latitude":33.17003,"longitude":-83.21249,"inactive":false,"membership":"middleton+waunakee","hubLinks":[{"hubId":"waunakee","direction":"hubOut","inactive":false},{"hubId":"middleton","direction":"hubOut","inactive":false}]},{"id":"111","name":"Peachtree City GA PD","state":"GA","entityType":"municipal_police","latitude":33.59827,"longitude":-83.18896,"inactive":false,"membership":"middleton+waunakee","hubLinks":[{"hubId":"waunakee","direction":"hubOut","inactive":false},{"hubId":"middleton","direction":"hubOut","inactive":false}]},{"id":"112","name":"Putnam County GA SO","state":"GA","entityType":"county_sheriff","latitude":33.27356,"longitude":-83.84307,"inactive":false,"membership":"middleton+waunakee","hubLinks":[{"hubId":"waunakee","direction":"hubOut","inactive":false},{"hubId":"middleton","direction":"hubOut","inactive":false}]},{"id":"113","name":"Rockmart GA PD","state":"GA","entityType":"municipal_police","latitude":32.94885,"longitude":-83.76778,"inactive":false,"membership":"middleton+waunakee","hubLinks":[{"hubId":"waunakee","direction":"hubOut","inactive":false},{"hubId":"middleton","direction":"hubOut","inactive":false}]},{"id":"114","name":"Swainsboro GA PD","state":"GA","entityType":"municipal_police","latitude":33.18885,"longitude":-84.09719,"inactive":false,"membership":"middleton+waunakee","hubLinks":[{"hubId":"waunakee","direction":"hubOut","inactive":false},{"hubId":"middleton","direction":"hubOut","inactive":false}]},{"id":"115","name":"Union County GA SO","state":"GA","entityType":"county_sheriff","latitude":32.62885,"longitude":-83.21719,"inactive":false,"membership":"middleton+waunakee","hubLinks":[{"hubId":"waunakee","direction":"hubOut","inactive":false},{"hubId":"middleton","direction":"hubOut","inactive":false}]},{"id":"116","name":"University of West Georgia GA PD","state":"GA","entityType":"university","latitude":33.51827,"longitude":-83.37719,"inactive":false,"membership":"middleton+waunakee","hubLinks":[{"hubId":"waunakee","direction":"hubOut","inactive":false},{"hubId":"middleton","direction":"hubOut","inactive":false}]},{"id":"117","name":"Warner Robins GA PD","state":"GA","entityType":"municipal_police","latitude":32.63827,"longitude":-83.3019,"inactive":false,"membership":"middleton+waunakee","hubLinks":[{"hubId":"waunakee","direction":"hubOut","inactive":false},{"hubId":"middleton","direction":"hubOut","inactive":false}]},{"id":"118","name":"Woodstock GA PD","state":"GA","entityType":"municipal_police","latitude":33.0665,"longitude":-83.21719,"inactive":false,"membership":"middleton_only","hubLinks":[{"hubId":"middleton","direction":"hubOut","inactive":false}]},{"id":"119","name":"Altoona IA PD","state":"IA","entityType":"municipal_police","latitude":41.63742,"longitude":-93.547,"inactive":false,"membership":"middleton+waunakee","hubLinks":[{"hubId":"waunakee","direction":"hubOut","inactive":false},{"hubId":"middleton","direction":"bidirectional","inactive":false}]},{"id":"120","name":"Ankeny IA PD","state":"IA","entityType":"municipal_police","latitude":41.60919,"longitude":-92.93523,"inactive":false,"membership":"middleton+waunakee","hubLinks":[{"hubId":"waunakee","direction":"hubOut","inactive":false},{"hubId":"middleton","direction":"bidirectional","inactive":false}]},{"id":"121","name":"Burlington IA PD","state":"IA","entityType":"municipal_police","latitude":42.05624,"longitude":-93.01053,"inactive":false,"membership":"middleton+waunakee","hubLinks":[{"hubId":"waunakee","direction":"hubOut","inactive":false},{"hubId":"middleton","direction":"bidirectional","inactive":false}]},{"id":"122","name":"Camanche IA PD","state":"IA","entityType":"municipal_police","latitude":41.5386,"longitude":-92.75641,"inactive":false,"membership":"middleton+waunakee","hubLinks":[{"hubId":"waunakee","direction":"hubOut","inactive":false},{"hubId":"middleton","direction":"hubOut","inactive":false}]},{"id":"123","name":"Carlisle IA PD","state":"IA","entityType":"municipal_police","latitude":42.19272,"longitude":-93.33523,"inactive":false,"membership":"middleton+waunakee","hubLinks":[{"hubId":"waunakee","direction":"hubOut","inactive":false},{"hubId":"middleton","direction":"bidirectional","inactive":false}]},{"id":"124","name":"Cedar County IA SO","state":"IA","entityType":"county_sheriff","latitude":41.91036,"longitude":-92.61053,"inactive":false,"membership":"middleton+waunakee","hubLinks":[{"hubId":"waunakee","direction":"hubOut","inactive":false},{"hubId":"middleton","direction":"bidirectional","inactive":false}]},{"id":"125","name":"Cedar Rapids IA PD","state":"IA","entityType":"municipal_police","latitude":41.48213,"longitude":-93.14229,"inactive":false,"membership":"middleton+waunakee","hubLinks":[{"hubId":"waunakee","direction":"hubOut","inactive":false},{"hubId":"middleton","direction":"bidirectional","inactive":false}]},{"id":"126","name":"Clear Lake IA PD","state":"IA","entityType":"municipal_police","latitude":41.88683,"longitude":-93.02935,"inactive":false,"membership":"middleton_only","hubLinks":[{"hubId":"middleton","direction":"hubOut","inactive":false}]},{"id":"127","name":"Clinton County IA SO","state":"IA","entityType":"county_sheriff","latitude":42.0986,"longitude":-93.60347,"inactive":false,"membership":"middleton+waunakee","hubLinks":[{"hubId":"waunakee","direction":"hubOut","inactive":false},{"hubId":"middleton","direction":"bidirectional","inactive":false}]},{"id":"128","name":"Clive IA PD","state":"IA","entityType":"municipal_police","latitude":41.59507,"longitude":-93.47641,"inactive":false,"membership":"middleton+waunakee","hubLinks":[{"hubId":"waunakee","direction":"hubOut","inactive":false},{"hubId":"middleton","direction":"hubOut","inactive":false}]},{"id":"129","name":"Council Bluffs IA PD","state":"IA","entityType":"municipal_police","latitude":41.88683,"longitude":-93.33053,"inactive":false,"membership":"middleton+waunakee","hubLinks":[{"hubId":"waunakee","direction":"hubOut","inactive":false},{"hubId":"middleton","direction":"hubOut","inactive":false}]},{"id":"130","name":"Davenport IA PD","state":"IA","entityType":"municipal_police","latitude":41.67507,"longitude":-92.80347,"inactive":false,"membership":"middleton+waunakee","hubLinks":[{"hubId":"waunakee","direction":"hubOut","inactive":false},{"hubId":"middleton","direction":"bidirectional","inactive":false}]},{"id":"131","name":"DeWitt IA PD","state":"IA","entityType":"municipal_police","latitude":42.53154,"longitude":-92.85994,"inactive":false,"membership":"middleton+waunakee","hubLinks":[{"hubId":"waunakee","direction":"hubOut","inactive":false},{"hubId":"middleton","direction":"hubOut","inactive":false}]},{"id":"132","name":"Des Moines IA PD","state":"IA","entityType":"municipal_police","latitude":42.44213,"longitude":-92.97758,"inactive":false,"membership":"middleton+waunakee","hubLinks":[{"hubId":"waunakee","direction":"hubOut","inactive":false},{"hubId":"middleton","direction":"hubOut","inactive":false}]},{"id":"133","name":"Dubuque IA PD","state":"IA","entityType":"municipal_police","latitude":42.39977,"longitude":-92.66229,"inactive":false,"membership":"middleton+waunakee","hubLinks":[{"hubId":"waunakee","direction":"bidirectional","inactive":false},{"hubId":"middleton","direction":"bidirectional","inactive":false}]},{"id":"134","name":"Earlham IA PD","state":"IA","entityType":"municipal_police","latitude":41.84919,"longitude":-93.547,"inactive":false,"membership":"middleton+waunakee","hubLinks":[{"hubId":"waunakee","direction":"hubOut","inactive":false},{"hubId":"middleton","direction":"hubIn","inactive":false}]},{"id":"135","name":"Fremont County IA SO","state":"IA","entityType":"county_sheriff","latitude":41.50095,"longitude":-93.32582,"inactive":false,"membership":"middleton+waunakee","hubLinks":[{"hubId":"waunakee","direction":"hubOut","inactive":false},{"hubId":"middleton","direction":"bidirectional","inactive":false}]},{"id":"136","name":"IA - Eldridge PD","state":"IA","entityType":"municipal_police","latitude":41.66566,"longitude":-92.70464,"inactive":false,"membership":"middleton+waunakee","hubLinks":[{"hubId":"waunakee","direction":"hubOut","inactive":false},{"hubId":"middleton","direction":"bidirectional","inactive":false}]},{"id":"137","name":"IA - Storm Lake PD","state":"IA","entityType":"municipal_police","latitude":42.42801,"longitude":-93.74464,"inactive":false,"membership":"middleton+waunakee","hubLinks":[{"hubId":"waunakee","direction":"bidirectional","inactive":false},{"hubId":"middleton","direction":"bidirectional","inactive":false}]},{"id":"138","name":"Iowa Department of Corrections","state":"IA","entityType":"state_agency","latitude":42.4186,"longitude":-93.03876,"inactive":false,"membership":"middleton+waunakee","hubLinks":[{"hubId":"waunakee","direction":"hubOut","inactive":false},{"hubId":"middleton","direction":"bidirectional","inactive":false}]},{"id":"139","name":"Iowa State University IA PD","state":"IA","entityType":"university","latitude":42.07507,"longitude":-93.627,"inactive":false,"membership":"middleton+waunakee","hubLinks":[{"hubId":"waunakee","direction":"hubOut","inactive":false},{"hubId":"middleton","direction":"bidirectional","inactive":false}]},{"id":"140","name":"Jasper County Sheriff IA","state":"IA","entityType":"county_sheriff","latitude":42.44213,"longitude":-92.9917,"inactive":false,"membership":"middleton+waunakee","hubLinks":[{"hubId":"waunakee","direction":"hubOut","inactive":false},{"hubId":"middleton","direction":"bidirectional","inactive":false}]},{"id":"141","name":"Johnston IA PD","state":"IA","entityType":"municipal_police","latitude":41.6186,"longitude":-93.22229,"inactive":false,"membership":"middleton+waunakee","hubLinks":[{"hubId":"waunakee","direction":"hubOut","inactive":false},{"hubId":"middleton","direction":"bidirectional","inactive":false}]},{"id":"142","name":"Le Mars IA PD","state":"IA","entityType":"municipal_police","latitude":42.40919,"longitude":-92.69053,"inactive":false,"membership":"middleton+waunakee","hubLinks":[{"hubId":"waunakee","direction":"hubOut","inactive":false},{"hubId":"middleton","direction":"hubOut","inactive":false}]},{"id":"143","name":"Mar Mac IA PD","state":"IA","entityType":"municipal_police","latitude":42.4186,"longitude":-92.68111,"inactive":false,"membership":"middleton+waunakee","hubLinks":[{"hubId":"waunakee","direction":"hubOut","inactive":false},{"hubId":"middleton","direction":"bidirectional","inactive":false}]},{"id":"144","name":"Marshalltown IA PD","state":"IA","entityType":"municipal_police","latitude":41.85389,"longitude":-92.90229,"inactive":false,"membership":"middleton+waunakee","hubLinks":[{"hubId":"waunakee","direction":"hubOut","inactive":false},{"hubId":"middleton","direction":"bidirectional","inactive":false}]},{"id":"145","name":"Newton IA PD","state":"IA","entityType":"municipal_police","latitude":42.30566,"longitude":-93.47641,"inactive":false,"membership":"middleton+waunakee","hubLinks":[{"hubId":"waunakee","direction":"hubOut","inactive":false},{"hubId":"middleton","direction":"bidirectional","inactive":false}]},{"id":"146","name":"North Liberty IA PD","state":"IA","entityType":"municipal_police","latitude":41.4586,"longitude":-93.38229,"inactive":false,"membership":"middleton+waunakee","hubLinks":[{"hubId":"waunakee","direction":"hubOut","inactive":false},{"hubId":"middleton","direction":"hubOut","inactive":false}]},{"id":"147","name":"Oelwein IA PD","state":"IA","entityType":"municipal_police","latitude":41.54801,"longitude":-93.62229,"inactive":false,"membership":"middleton_only","hubLinks":[{"hubId":"middleton","direction":"hubOut","inactive":false}]},{"id":"148","name":"Pleasant Hill IA PD","state":"IA","entityType":"municipal_police","latitude":42.52213,"longitude":-93.59406,"inactive":false,"membership":"middleton+waunakee","hubLinks":[{"hubId":"waunakee","direction":"hubOut","inactive":false},{"hubId":"middleton","direction":"hubOut","inactive":false}]},{"id":"149","name":"Pottawattamie County IA SO","state":"IA","entityType":"county_sheriff","latitude":41.43507,"longitude":-92.99641,"inactive":false,"membership":"middleton+waunakee","hubLinks":[{"hubId":"waunakee","direction":"hubOut","inactive":false},{"hubId":"middleton","direction":"bidirectional","inactive":false}]},{"id":"150","name":"Sergeant Bluff IA PD","state":"IA","entityType":"municipal_police","latitude":42.13624,"longitude":-92.747,"inactive":false,"membership":"middleton+waunakee","hubLinks":[{"hubId":"waunakee","direction":"hubOut","inactive":false},{"hubId":"middleton","direction":"hubOut","inactive":false}]},{"id":"151","name":"Sioux City IA PD","state":"IA","entityType":"municipal_police","latitude":42.07977,"longitude":-93.35406,"inactive":false,"membership":"middleton+waunakee","hubLinks":[{"hubId":"waunakee","direction":"bidirectional","inactive":false},{"hubId":"middleton","direction":"bidirectional","inactive":false}]},{"id":"152","name":"Tipton IA PD","state":"IA","entityType":"municipal_police","latitude":41.43036,"longitude":-93.58464,"inactive":false,"membership":"middleton+waunakee","hubLinks":[{"hubId":"waunakee","direction":"hubOut","inactive":false},{"hubId":"middleton","direction":"bidirectional","inactive":false}]},{"id":"153","name":"University of Iowa PD (IA)","state":"IA","entityType":"university","latitude":41.87272,"longitude":-93.75406,"inactive":false,"membership":"middleton+waunakee","hubLinks":[{"hubId":"waunakee","direction":"hubOut","inactive":false},{"hubId":"middleton","direction":"bidirectional","inactive":false}]},{"id":"154","name":"Urbandale IA PD","state":"IA","entityType":"municipal_police","latitude":41.54801,"longitude":-93.74464,"inactive":false,"membership":"middleton+waunakee","hubLinks":[{"hubId":"waunakee","direction":"hubOut","inactive":false},{"hubId":"middleton","direction":"hubOut","inactive":false}]},{"id":"155","name":"Wapello County IA SO","state":"IA","entityType":"county_sheriff","latitude":41.56683,"longitude":-93.74464,"inactive":false,"membership":"middleton+waunakee","hubLinks":[{"hubId":"waunakee","direction":"hubOut","inactive":false},{"hubId":"middleton","direction":"bidirectional","inactive":false}]},{"id":"156","name":"Washington IA PD","state":"IA","entityType":"municipal_police","latitude":41.48213,"longitude":-92.69994,"inactive":false,"membership":"middleton+waunakee","hubLinks":[{"hubId":"waunakee","direction":"hubOut","inactive":false},{"hubId":"middleton","direction":"bidirectional","inactive":false}]},{"id":"157","name":"Waukee IA PD","state":"IA","entityType":"municipal_police","latitude":42.34801,"longitude":-93.37288,"inactive":false,"membership":"middleton+waunakee","hubLinks":[{"hubId":"waunakee","direction":"hubOut","inactive":false},{"hubId":"middleton","direction":"hubOut","inactive":false}]},{"id":"158","name":"Waukon IA PD","state":"IA","entityType":"municipal_police","latitude":42.00448,"longitude":-92.79406,"inactive":false,"membership":"middleton+waunakee","hubLinks":[{"hubId":"waunakee","direction":"hubOut","inactive":false},{"hubId":"middleton","direction":"bidirectional","inactive":false}]},{"id":"159","name":"West Des Moines IA PD","state":"IA","entityType":"municipal_police","latitude":42.61154,"longitude":-93.60347,"inactive":false,"membership":"middleton+waunakee","hubLinks":[{"hubId":"waunakee","direction":"hubOut","inactive":false},{"hubId":"middleton","direction":"bidirectional","inactive":false}]},{"id":"160","name":"Woodbury County IA SO","state":"IA","entityType":"county_sheriff","latitude":42.18801,"longitude":-93.72582,"inactive":false,"membership":"middleton+waunakee","hubLinks":[{"hubId":"waunakee","direction":"hubOut","inactive":false},{"hubId":"middleton","direction":"hubOut","inactive":false}]},{"id":"161","name":"Ada County ID SO","state":"ID","entityType":"county_sheriff","latitude":44.52046,"longitude":-114.59883,"inactive":false,"membership":"middleton+waunakee","hubLinks":[{"hubId":"waunakee","direction":"hubOut","inactive":false},{"hubId":"middleton","direction":"hubOut","inactive":false}]},{"id":"162","name":"Idaho State Police ID","state":"ID","entityType":"state_agency","latitude":44.20987,"longitude":-114.07177,"inactive":false,"membership":"middleton+waunakee","hubLinks":[{"hubId":"waunakee","direction":"hubOut","inactive":false},{"hubId":"middleton","direction":"hubOut","inactive":false}]},{"id":"163","name":"Sun Valley PD ID","state":"ID","entityType":"municipal_police","latitude":43.92752,"longitude":-114.84353,"inactive":false,"membership":"middleton+waunakee","hubLinks":[{"hubId":"waunakee","direction":"hubOut","inactive":false},{"hubId":"middleton","direction":"hubOut","inactive":false}]},{"id":"164","name":"Adams County IL SO","state":"IL","entityType":"county_sheriff","latitude":40.04593,"longitude":-88.87084,"inactive":false,"membership":"middleton+waunakee","hubLinks":[{"hubId":"waunakee","direction":"hubOut","inactive":false},{"hubId":"middleton","direction":"bidirectional","inactive":false}]},{"id":"165","name":"Addison IL PD","state":"IL","entityType":"municipal_police","latitude":40.63416,"longitude":-89.20025,"inactive":false,"membership":"middleton+waunakee","hubLinks":[{"hubId":"waunakee","direction":"hubOut","inactive":false},{"hubId":"middleton","direction":"bidirectional","inactive":false}]},{"id":"166","name":"Antioch IL PD","state":"IL","entityType":"municipal_police","latitude":40.80357,"longitude":-88.45673,"inactive":false,"membership":"middleton+waunakee","hubLinks":[{"hubId":"waunakee","direction":"hubOut","inactive":false},{"hubId":"middleton","direction":"hubOut","inactive":false}]},{"id":"167","name":"Arcola IL PD","state":"IL","entityType":"municipal_police","latitude":40.29063,"longitude":-88.5932,"inactive":false,"membership":"middleton_only","hubLinks":[{"hubId":"middleton","direction":"hubIn","inactive":false}]},{"id":"168","name":"Arthur IL PD","state":"IL","entityType":"municipal_police","latitude":40.35181,"longitude":-88.66849,"inactive":false,"membership":"middleton+waunakee","hubLinks":[{"hubId":"waunakee","direction":"hubOut","inactive":false},{"hubId":"middleton","direction":"hubOut","inactive":false}]},{"id":"169","name":"Athens IL PD","state":"IL","entityType":"municipal_police","latitude":40.9024,"longitude":-88.9932,"inactive":false,"membership":"middleton_only","hubLinks":[{"hubId":"middleton","direction":"hubIn","inactive":false}]},{"id":"170","name":"Attorney General of Illinois - Medicare Fraud Division","state":"IL","entityType":"state_agency","latitude":40.29063,"longitude":-89.22378,"inactive":false,"membership":"middleton+waunakee","hubLinks":[{"hubId":"waunakee","direction":"hubOut","inactive":false},{"hubId":"middleton","direction":"hubOut","inactive":false}]},{"id":"171","name":"Aurora IL PD","state":"IL","entityType":"municipal_police","latitude":39.93769,"longitude":-89.22378,"inactive":false,"membership":"middleton+waunakee","hubLinks":[{"hubId":"waunakee","direction":"hubOut","inactive":false},{"hubId":"middleton","direction":"bidirectional","inactive":false}]},{"id":"172","name":"Aviston IL PD","state":"IL","entityType":"municipal_police","latitude":40.23887,"longitude":-89.20496,"inactive":false,"membership":"middleton+waunakee","hubLinks":[{"hubId":"waunakee","direction":"hubOut","inactive":false},{"hubId":"middleton","direction":"bidirectional","inactive":false}]},{"id":"173","name":"Barrington Hills IL PD","state":"IL","entityType":"municipal_police","latitude":40.09769,"longitude":-88.96025,"inactive":false,"membership":"middleton+waunakee","hubLinks":[{"hubId":"waunakee","direction":"hubOut","inactive":false},{"hubId":"middleton","direction":"hubOut","inactive":false}]},{"id":"174","name":"Belvidere IL PD","state":"IL","entityType":"municipal_police","latitude":40.05534,"longitude":-88.50849,"inactive":false,"membership":"middleton+waunakee","hubLinks":[{"hubId":"waunakee","direction":"hubOut","inactive":false},{"hubId":"middleton","direction":"bidirectional","inactive":false}]},{"id":"175","name":"Benton IL PD","state":"IL","entityType":"municipal_police","latitude":40.77534,"longitude":-88.65908,"inactive":false,"membership":"middleton+waunakee","hubLinks":[{"hubId":"waunakee","direction":"hubOut","inactive":false},{"hubId":"middleton","direction":"hubOut","inactive":false}]},{"id":"176","name":"Berkeley IL PD","state":"IL","entityType":"municipal_police","latitude":40.70475,"longitude":-88.82378,"inactive":false,"membership":"middleton+waunakee","hubLinks":[{"hubId":"waunakee","direction":"hubOut","inactive":false},{"hubId":"middleton","direction":"bidirectional","inactive":false}]},{"id":"177","name":"Bloomington IL PD","state":"IL","entityType":"municipal_police","latitude":40.40828,"longitude":-88.5979,"inactive":false,"membership":"middleton+waunakee","hubLinks":[{"hubId":"waunakee","direction":"hubOut","inactive":false},{"hubId":"middleton","direction":"hubOut","inactive":false}]},{"id":"178","name":"Bolingbrook IL PD","state":"IL","entityType":"municipal_police","latitude":39.75416,"longitude":-88.58378,"inactive":false,"membership":"middleton+waunakee","hubLinks":[{"hubId":"waunakee","direction":"hubOut","inactive":false},{"hubId":"middleton","direction":"bidirectional","inactive":false}]},{"id":"179","name":"Bond County IL SO","state":"IL","entityType":"county_sheriff","latitude":39.97534,"longitude":-89.09673,"inactive":false,"membership":"middleton_only","hubLinks":[{"hubId":"middleton","direction":"hubIn","inactive":false}]},{"id":"180","name":"Boone County IL SO","state":"IL","entityType":"county_sheriff","latitude":40.32828,"longitude":-89.09202,"inactive":false,"membership":"middleton+waunakee","hubLinks":[{"hubId":"waunakee","direction":"bidirectional","inactive":false},{"hubId":"middleton","direction":"bidirectional","inactive":false}]},{"id":"181","name":"Bourbonnais IL PD","state":"IL","entityType":"municipal_police","latitude":40.16357,"longitude":-89.54849,"inactive":false,"membership":"middleton+waunakee","hubLinks":[{"hubId":"waunakee","direction":"hubOut","inactive":false},{"hubId":"middleton","direction":"bidirectional","inactive":false}]},{"id":"182","name":"Bradley IL PD","state":"IL","entityType":"municipal_police","latitude":40.64828,"longitude":-88.80025,"inactive":false,"membership":"middleton_only","hubLinks":[{"hubId":"middleton","direction":"hubIn","inactive":false}]},{"id":"183","name":"Braidwood IL PD","state":"IL","entityType":"municipal_police","latitude":40.61534,"longitude":-88.76731,"inactive":false,"membership":"middleton+waunakee","hubLinks":[{"hubId":"waunakee","direction":"hubOut","inactive":false},{"hubId":"middleton","direction":"bidirectional","inactive":false}]},{"id":"184","name":"Breese IL PD","state":"IL","entityType":"municipal_police","latitude":40.13534,"longitude":-88.45202,"inactive":false,"membership":"middleton_only","hubLinks":[{"hubId":"middleton","direction":"hubIn","inactive":false}]},{"id":"185","name":"Bridgeview IL PD","state":"IL","entityType":"municipal_police","latitude":40.20593,"longitude":-88.82378,"inactive":false,"membership":"middleton+waunakee","hubLinks":[{"hubId":"waunakee","direction":"hubOut","inactive":false},{"hubId":"middleton","direction":"hubOut","inactive":false}]},{"id":"186","name":"Brown County IL SO","state":"IL","entityType":"county_sheriff","latitude":39.93769,"longitude":-89.50614,"inactive":false,"membership":"middleton+waunakee","hubLinks":[{"hubId":"waunakee","direction":"hubOut","inactive":false},{"hubId":"middleton","direction":"hubOut","inactive":false}]},{"id":"187","name":"Bureau Co. IL SO","state":"IL","entityType":"county_sheriff","latitude":40.01299,"longitude":-88.74849,"inactive":false,"membership":"middleton+waunakee","hubLinks":[{"hubId":"waunakee","direction":"bidirectional","inactive":false},{"hubId":"middleton","direction":"hubOut","inactive":false}]},{"id":"188","name":"Burnham IL PD","state":"IL","entityType":"municipal_police","latitude":40.75652,"longitude":-89.5579,"inactive":false,"membership":"middleton+waunakee","hubLinks":[{"hubId":"waunakee","direction":"hubOut","inactive":false},{"hubId":"middleton","direction":"hubOut","inactive":false}]},{"id":"189","name":"Burr Ridge IL PD","state":"IL","entityType":"municipal_police","latitude":40.27652,"longitude":-89.26143,"inactive":false,"membership":"middleton+waunakee","hubLinks":[{"hubId":"waunakee","direction":"hubOut","inactive":false},{"hubId":"middleton","direction":"bidirectional","inactive":false}]},{"id":"190","name":"Bushnell IL PD","state":"IL","entityType":"municipal_police","latitude":39.91416,"longitude":-88.87555,"inactive":false,"membership":"middleton+waunakee","hubLinks":[{"hubId":"waunakee","direction":"hubOut","inactive":false},{"hubId":"middleton","direction":"hubOut","inactive":false}]},{"id":"191","name":"Byron IL PD","state":"IL","entityType":"municipal_police","latitude":40.27652,"longitude":-89.40731,"inactive":false,"membership":"middleton+waunakee","hubLinks":[{"hubId":"waunakee","direction":"hubOut","inactive":false},{"hubId":"middleton","direction":"hubOut","inactive":false}]},{"id":"192","name":"Calumet Park IL PD","state":"IL","entityType":"municipal_police","latitude":40.85534,"longitude":-89.30849,"inactive":false,"membership":"middleton+waunakee","hubLinks":[{"hubId":"waunakee","direction":"bidirectional","inactive":false},{"hubId":"middleton","direction":"bidirectional","inactive":false}]},{"id":"193","name":"Campton Hills IL PD","state":"IL","entityType":"municipal_police","latitude":40.23887,"longitude":-89.21437,"inactive":false,"membership":"middleton+waunakee","hubLinks":[{"hubId":"waunakee","direction":"hubOut","inactive":false},{"hubId":"middleton","direction":"hubOut","inactive":false}]},{"id":"194","name":"Canton IL PD","state":"IL","entityType":"municipal_police","latitude":40.30005,"longitude":-89.16731,"inactive":false,"membership":"middleton+waunakee","hubLinks":[{"hubId":"waunakee","direction":"bidirectional","inactive":false},{"hubId":"middleton","direction":"bidirectional","inactive":false}]},{"id":"195","name":"Carbondale IL PD","state":"IL","entityType":"municipal_police","latitude":39.88593,"longitude":-88.40967,"inactive":false,"membership":"middleton+waunakee","hubLinks":[{"hubId":"waunakee","direction":"hubOut","inactive":false},{"hubId":"middleton","direction":"hubOut","inactive":false}]},{"id":"196","name":"Carlyle IL PD","state":"IL","entityType":"municipal_police","latitude":40.59652,"longitude":-88.70614,"inactive":false,"membership":"middleton_only","hubLinks":[{"hubId":"middleton","direction":"hubIn","inactive":false}]},{"id":"197","name":"Carol Stream IL PD","state":"IL","entityType":"municipal_police","latitude":40.40357,"longitude":-88.63084,"inactive":false,"membership":"middleton+waunakee","hubLinks":[{"hubId":"waunakee","direction":"hubOut","inactive":false},{"hubId":"middleton","direction":"bidirectional","inactive":false}]},{"id":"198","name":"Carpentersville IL PD","state":"IL","entityType":"municipal_police","latitude":40.52122,"longitude":-88.53202,"inactive":false,"membership":"middleton+waunakee","hubLinks":[{"hubId":"waunakee","direction":"hubOut","inactive":false},{"hubId":"middleton","direction":"hubOut","inactive":false}]},{"id":"199","name":"Carterville IL PD","state":"IL","entityType":"municipal_police","latitude":40.17299,"longitude":-89.3179,"inactive":false,"membership":"middleton+waunakee","hubLinks":[{"hubId":"waunakee","direction":"hubOut","inactive":false},{"hubId":"middleton","direction":"hubOut","inactive":false}]},{"id":"200","name":"Cary IL PD","state":"IL","entityType":"municipal_police","latitude":39.93299,"longitude":-88.71084,"inactive":false,"membership":"middleton+waunakee","hubLinks":[{"hubId":"waunakee","direction":"hubOut","inactive":false},{"hubId":"middleton","direction":"hubOut","inactive":false}]},{"id":"201","name":"Cass County IL SO","state":"IL","entityType":"county_sheriff","latitude":40.06475,"longitude":-88.87555,"inactive":false,"membership":"middleton+waunakee","hubLinks":[{"hubId":"waunakee","direction":"hubOut","inactive":false},{"hubId":"middleton","direction":"hubOut","inactive":false}]},{"id":"202","name":"Centralia IL PD","state":"IL","entityType":"municipal_police","latitude":40.65769,"longitude":-88.9932,"inactive":false,"membership":"middleton+waunakee","hubLinks":[{"hubId":"waunakee","direction":"hubOut","inactive":false},{"hubId":"middleton","direction":"bidirectional","inactive":false}]},{"id":"203","name":"Champaign County IL SO","state":"IL","entityType":"county_sheriff","latitude":40.07887,"longitude":-89.43084,"inactive":false,"membership":"middleton+waunakee","hubLinks":[{"hubId":"waunakee","direction":"hubOut","inactive":false},{"hubId":"middleton","direction":"bidirectional","inactive":false}]},{"id":"204","name":"Champaign IL PD","state":"IL","entityType":"municipal_police","latitude":40.93534,"longitude":-89.18143,"inactive":false,"membership":"middleton+waunakee","hubLinks":[{"hubId":"waunakee","direction":"hubOut","inactive":false},{"hubId":"middleton","direction":"hubOut","inactive":false}]},{"id":"205","name":"Channahon IL PD","state":"IL","entityType":"municipal_police","latitude":40.91652,"longitude":-88.98378,"inactive":false,"membership":"middleton+waunakee","hubLinks":[{"hubId":"waunakee","direction":"hubOut","inactive":false},{"hubId":"middleton","direction":"hubOut","inactive":false}]},{"id":"206","name":"Charleston IL PD","state":"IL","entityType":"municipal_police","latitude":40.1824,"longitude":-88.4379,"inactive":false,"membership":"middleton+waunakee","hubLinks":[{"hubId":"waunakee","direction":"hubOut","inactive":false},{"hubId":"middleton","direction":"bidirectional","inactive":false}]},{"id":"207","name":"Chatham IL PD","state":"IL","entityType":"municipal_police","latitude":40.45534,"longitude":-88.98378,"inactive":false,"membership":"middleton+waunakee","hubLinks":[{"hubId":"waunakee","direction":"hubOut","inactive":false},{"hubId":"middleton","direction":"bidirectional","inactive":false}]},{"id":"208","name":"Chenoa IL PD","state":"IL","entityType":"municipal_police","latitude":40.41299,"longitude":-88.42849,"inactive":false,"membership":"middleton+waunakee","hubLinks":[{"hubId":"waunakee","direction":"hubOut","inactive":false},{"hubId":"middleton","direction":"hubIn","inactive":false}]},{"id":"209","name":"Cherry Valley IL PD","state":"IL","entityType":"municipal_police","latitude":40.36593,"longitude":-88.41908,"inactive":false,"membership":"middleton+waunakee","hubLinks":[{"hubId":"waunakee","direction":"bidirectional","inactive":false},{"hubId":"middleton","direction":"hubOut","inactive":false}]},{"id":"210","name":"Chicago IL PD","state":"IL","entityType":"municipal_police","latitude":40.73769,"longitude":-88.84731,"inactive":false,"membership":"middleton+waunakee","hubLinks":[{"hubId":"waunakee","direction":"hubOut","inactive":false},{"hubId":"middleton","direction":"hubOut","inactive":false}]},{"id":"211","name":"Chillicothe IL PD","state":"IL","entityType":"municipal_police","latitude":39.79181,"longitude":-89.34143,"inactive":false,"membership":"middleton+waunakee","hubLinks":[{"hubId":"waunakee","direction":"hubOut","inactive":false},{"hubId":"middleton","direction":"hubOut","inactive":false}]},{"id":"212","name":"Clark Co. IL Sheriff's Dept.","state":"IL","entityType":"county_sheriff","latitude":40.92593,"longitude":-89.38378,"inactive":false,"membership":"middleton_only","hubLinks":[{"hubId":"middleton","direction":"hubIn","inactive":false}]},{"id":"213","name":"Coles County IL SO","state":"IL","entityType":"county_sheriff","latitude":40.7471,"longitude":-88.9132,"inactive":false,"membership":"waunakee_only","hubLinks":[{"hubId":"waunakee","direction":"hubIn","inactive":false}]},{"id":"214","name":"Cortland IL PD","state":"IL","entityType":"municipal_police","latitude":40.35181,"longitude":-89.38378,"inactive":false,"membership":"middleton+waunakee","hubLinks":[{"hubId":"waunakee","direction":"hubOut","inactive":false},{"hubId":"middleton","direction":"hubOut","inactive":false}]},{"id":"215","name":"Country Club Hills IL PD","state":"IL","entityType":"municipal_police","latitude":40.76593,"longitude":-89.11084,"inactive":false,"membership":"middleton+waunakee","hubLinks":[{"hubId":"waunakee","direction":"hubOut","inactive":false},{"hubId":"middleton","direction":"hubOut","inactive":false}]},{"id":"216","name":"Crainville IL PD","state":"IL","entityType":"municipal_police","latitude":39.82005,"longitude":-89.28025,"inactive":false,"membership":"middleton+waunakee","hubLinks":[{"hubId":"waunakee","direction":"hubOut","inactive":false},{"hubId":"middleton","direction":"bidirectional","inactive":false}]},{"id":"217","name":"Crawford County IL SO","state":"IL","entityType":"county_sheriff","latitude":39.85299,"longitude":-88.71084,"inactive":false,"membership":"middleton+waunakee","hubLinks":[{"hubId":"waunakee","direction":"hubOut","inactive":false},{"hubId":"middleton","direction":"bidirectional","inactive":false}]},{"id":"218","name":"Crest Hill IL PD","state":"IL","entityType":"municipal_police","latitude":40.16828,"longitude":-89.10614,"inactive":false,"membership":"middleton+waunakee","hubLinks":[{"hubId":"waunakee","direction":"hubOut","inactive":false},{"hubId":"middleton","direction":"bidirectional","inactive":false}]},{"id":"219","name":"Creve Coeur IL PD","state":"IL","entityType":"municipal_police","latitude":39.98005,"longitude":-89.21437,"inactive":false,"membership":"middleton+waunakee","hubLinks":[{"hubId":"waunakee","direction":"hubOut","inactive":false},{"hubId":"middleton","direction":"bidirectional","inactive":false}]},{"id":"220","name":"Crystal Lake IL PD","state":"IL","entityType":"municipal_police","latitude":40.00357,"longitude":-89.01673,"inactive":false,"membership":"middleton+waunakee","hubLinks":[{"hubId":"waunakee","direction":"hubOut","inactive":false},{"hubId":"middleton","direction":"bidirectional","inactive":false}]},{"id":"221","name":"Danville IL PD","state":"IL","entityType":"municipal_police","latitude":40.23416,"longitude":-88.48967,"inactive":false,"membership":"middleton+waunakee","hubLinks":[{"hubId":"waunakee","direction":"hubOut","inactive":false},{"hubId":"middleton","direction":"hubOut","inactive":false}]},{"id":"222","name":"Darien IL PD","state":"IL","entityType":"municipal_police","latitude":40.47887,"longitude":-88.95084,"inactive":false,"membership":"middleton+waunakee","hubLinks":[{"hubId":"waunakee","direction":"hubOut","inactive":false},{"hubId":"middleton","direction":"bidirectional","inactive":false}]},{"id":"223","name":"Depue IL PD","state":"IL","entityType":"municipal_police","latitude":40.15416,"longitude":-88.4379,"inactive":false,"membership":"middleton+waunakee","hubLinks":[{"hubId":"waunakee","direction":"hubOut","inactive":false},{"hubId":"middleton","direction":"hubOut","inactive":false}]},{"id":"224","name":"Des Plaines IL PD","state":"IL","entityType":"municipal_police","latitude":40.37063,"longitude":-88.80967,"inactive":false,"membership":"middleton+waunakee","hubLinks":[{"hubId":"waunakee","direction":"hubOut","inactive":false},{"hubId":"middleton","direction":"hubOut","inactive":false}]},{"id":"225","name":"Dixmoor IL PD","state":"IL","entityType":"municipal_police","latitude":39.81534,"longitude":-89.11084,"inactive":false,"membership":"middleton+waunakee","hubLinks":[{"hubId":"waunakee","direction":"hubOut","inactive":false},{"hubId":"middleton","direction":"hubOut","inactive":false}]},{"id":"226","name":"Dolton IL PD","state":"IL","entityType":"municipal_police","latitude":40.4224,"longitude":-89.44025,"inactive":false,"membership":"middleton+waunakee","hubLinks":[{"hubId":"waunakee","direction":"bidirectional","inactive":false},{"hubId":"middleton","direction":"bidirectional","inactive":false}]},{"id":"227","name":"Douglas County IL SO","state":"IL","entityType":"county_sheriff","latitude":40.79887,"longitude":-88.50378,"inactive":false,"membership":"middleton_only","hubLinks":[{"hubId":"middleton","direction":"hubIn","inactive":false}]},{"id":"228","name":"Downers Grove IL PD","state":"IL","entityType":"municipal_police","latitude":40.48828,"longitude":-89.09202,"inactive":false,"membership":"middleton+waunakee","hubLinks":[{"hubId":"waunakee","direction":"hubOut","inactive":false},{"hubId":"middleton","direction":"hubOut","inactive":false}]},{"id":"229","name":"DuPage Co IL Prosecutor Office","state":"IL","entityType":"prosecutor","latitude":39.7871,"longitude":-89.24261,"inactive":false,"membership":"middleton+waunakee","hubLinks":[{"hubId":"waunakee","direction":"hubOut","inactive":false},{"hubId":"middleton","direction":"hubOut","inactive":false}]},{"id":"230","name":"DuPage County IL SO","state":"IL","entityType":"county_sheriff","latitude":40.5024,"longitude":-88.48496,"inactive":false,"membership":"middleton+waunakee","hubLinks":[{"hubId":"waunakee","direction":"hubOut","inactive":false},{"hubId":"middleton","direction":"bidirectional","inactive":false}]},{"id":"231","name":"East Dundee IL PD","state":"IL","entityType":"municipal_police","latitude":39.83887,"longitude":-88.92261,"inactive":false,"membership":"middleton+waunakee","hubLinks":[{"hubId":"waunakee","direction":"hubOut","inactive":false},{"hubId":"middleton","direction":"hubOut","inactive":false}]},{"id":"232","name":"East Hazel Crest IL PD","state":"IL","entityType":"municipal_police","latitude":40.36593,"longitude":-89.14849,"inactive":false,"membership":"middleton+waunakee","hubLinks":[{"hubId":"waunakee","direction":"hubOut","inactive":false},{"hubId":"middleton","direction":"hubOut","inactive":false}]},{"id":"233","name":"East Moline IL PD","state":"IL","entityType":"municipal_police","latitude":40.65299,"longitude":-89.20967,"inactive":false,"membership":"middleton+waunakee","hubLinks":[{"hubId":"waunakee","direction":"hubOut","inactive":false},{"hubId":"middleton","direction":"hubOut","inactive":false}]},{"id":"234","name":"East Peoria IL PD","state":"IL","entityType":"municipal_police","latitude":39.82946,"longitude":-89.2332,"inactive":false,"membership":"middleton+waunakee","hubLinks":[{"hubId":"waunakee","direction":"hubOut","inactive":false},{"hubId":"middleton","direction":"bidirectional","inactive":false}]},{"id":"235","name":"El Paso IL PD","state":"IL","entityType":"municipal_police","latitude":39.79652,"longitude":-89.37437,"inactive":false,"membership":"middleton_only","hubLinks":[{"hubId":"middleton","direction":"hubIn","inactive":false}]},{"id":"236","name":"Elk Grove IL PD","state":"IL","entityType":"municipal_police","latitude":40.47416,"longitude":-89.56731,"inactive":false,"membership":"middleton+waunakee","hubLinks":[{"hubId":"waunakee","direction":"hubOut","inactive":false},{"hubId":"middleton","direction":"hubOut","inactive":false}]},{"id":"237","name":"Elmhurst IL PD","state":"IL","entityType":"municipal_police","latitude":40.87887,"longitude":-88.70143,"inactive":false,"membership":"middleton+waunakee","hubLinks":[{"hubId":"waunakee","direction":"hubOut","inactive":false},{"hubId":"middleton","direction":"hubOut","inactive":false}]},{"id":"238","name":"Energy IL PD","state":"IL","entityType":"municipal_police","latitude":40.39887,"longitude":-88.5132,"inactive":false,"membership":"middleton+waunakee","hubLinks":[{"hubId":"waunakee","direction":"hubOut","inactive":false},{"hubId":"middleton","direction":"hubOut","inactive":false}]},{"id":"239","name":"Farmer City IL PD","state":"IL","entityType":"municipal_police","latitude":40.31887,"longitude":-88.68731,"inactive":false,"membership":"middleton+waunakee","hubLinks":[{"hubId":"waunakee","direction":"hubOut","inactive":false},{"hubId":"middleton","direction":"bidirectional","inactive":false}]},{"id":"240","name":"Fayette County IL SO","state":"IL","entityType":"county_sheriff","latitude":40.24828,"longitude":-88.45202,"inactive":false,"membership":"middleton+waunakee","hubLinks":[{"hubId":"waunakee","direction":"hubOut","inactive":false},{"hubId":"middleton","direction":"hubOut","inactive":false}]},{"id":"241","name":"Flora- IL - PD","state":"IL","entityType":"municipal_police","latitude":40.29534,"longitude":-88.8379,"inactive":false,"membership":"middleton+waunakee","hubLinks":[{"hubId":"waunakee","direction":"hubOut","inactive":false},{"hubId":"middleton","direction":"bidirectional","inactive":false}]},{"id":"242","name":"Flossmoor IL PD","state":"IL","entityType":"municipal_police","latitude":39.84357,"longitude":-89.5579,"inactive":false,"membership":"middleton+waunakee","hubLinks":[{"hubId":"waunakee","direction":"hubOut","inactive":false},{"hubId":"middleton","direction":"hubOut","inactive":false}]},{"id":"243","name":"Forest Preserve District Will County PD (IL)","state":"IL","entityType":"municipal_police","latitude":40.28593,"longitude":-89.26614,"inactive":false,"membership":"middleton+waunakee","hubLinks":[{"hubId":"waunakee","direction":"hubOut","inactive":false},{"hubId":"middleton","direction":"hubOut","inactive":false}]},{"id":"244","name":"Forest View IL PD","state":"IL","entityType":"municipal_police","latitude":40.36122,"longitude":-88.68261,"inactive":false,"membership":"middleton_only","hubLinks":[{"hubId":"middleton","direction":"hubIn","inactive":false}]},{"id":"245","name":"Fox Lake IL PD","state":"IL","entityType":"municipal_police","latitude":39.75416,"longitude":-89.46378,"inactive":false,"membership":"middleton+waunakee","hubLinks":[{"hubId":"waunakee","direction":"hubOut","inactive":false},{"hubId":"middleton","direction":"hubOut","inactive":false}]},{"id":"246","name":"Fox Valley IL Parks District","state":"IL","entityType":"parks","latitude":40.00828,"longitude":-88.6732,"inactive":false,"membership":"middleton+waunakee","hubLinks":[{"hubId":"waunakee","direction":"hubOut","inactive":false},{"hubId":"middleton","direction":"hubOut","inactive":false}]},{"id":"247","name":"Franklin County IL SO","state":"IL","entityType":"county_sheriff","latitude":40.01769,"longitude":-89.06378,"inactive":false,"membership":"middleton+waunakee","hubLinks":[{"hubId":"waunakee","direction":"hubOut","inactive":false},{"hubId":"middleton","direction":"bidirectional","inactive":false}]},{"id":"248","name":"Franklin Park IL PD","state":"IL","entityType":"municipal_police","latitude":40.30475,"longitude":-89.0779,"inactive":false,"membership":"middleton+waunakee","hubLinks":[{"hubId":"waunakee","direction":"hubOut","inactive":false},{"hubId":"middleton","direction":"hubOut","inactive":false}]},{"id":"249","name":"Freeport IL PD","state":"IL","entityType":"municipal_police","latitude":40.49769,"longitude":-89.24731,"inactive":false,"membership":"middleton+waunakee","hubLinks":[{"hubId":"waunakee","direction":"hubOut","inactive":false},{"hubId":"middleton","direction":"bidirectional","inactive":false}]},{"id":"250","name":"Fulton County IL SO","state":"IL","entityType":"county_sheriff","latitude":39.89063,"longitude":-89.25202,"inactive":false,"membership":"middleton+waunakee","hubLinks":[{"hubId":"waunakee","direction":"hubOut","inactive":false},{"hubId":"middleton","direction":"hubOut","inactive":false}]},{"id":"251","name":"Fulton IL PD","state":"IL","entityType":"municipal_police","latitude":40.68593,"longitude":-89.14849,"inactive":false,"membership":"middleton+waunakee","hubLinks":[{"hubId":"waunakee","direction":"hubOut","inactive":false},{"hubId":"middleton","direction":"bidirectional","inactive":false}]},{"id":"252","name":"Galesburg IL PD","state":"IL","entityType":"municipal_police","latitude":40.75652,"longitude":-88.50849,"inactive":false,"membership":"middleton+waunakee","hubLinks":[{"hubId":"waunakee","direction":"hubOut","inactive":false},{"hubId":"middleton","direction":"bidirectional","inactive":false}]},{"id":"253","name":"Galva IL PD","state":"IL","entityType":"municipal_police","latitude":40.83652,"longitude":-88.95555,"inactive":false,"membership":"middleton+waunakee","hubLinks":[{"hubId":"waunakee","direction":"hubOut","inactive":false},{"hubId":"middleton","direction":"hubOut","inactive":false}]},{"id":"254","name":"Georgetown IL PD","state":"IL","entityType":"municipal_police","latitude":40.45063,"longitude":-89.50143,"inactive":false,"membership":"middleton+waunakee","hubLinks":[{"hubId":"waunakee","direction":"hubOut","inactive":false},{"hubId":"middleton","direction":"bidirectional","inactive":false}]},{"id":"255","name":"Glen Carbon IL PD","state":"IL","entityType":"municipal_police","latitude":40.45063,"longitude":-89.18143,"inactive":false,"membership":"middleton+waunakee","hubLinks":[{"hubId":"waunakee","direction":"hubOut","inactive":false},{"hubId":"middleton","direction":"hubOut","inactive":false}]},{"id":"256","name":"Glen Ellyn IL PD","state":"IL","entityType":"municipal_police","latitude":40.13063,"longitude":-88.49437,"inactive":false,"membership":"middleton+waunakee","hubLinks":[{"hubId":"waunakee","direction":"hubOut","inactive":false},{"hubId":"middleton","direction":"hubOut","inactive":false}]},{"id":"257","name":"Glencoe IL PD","state":"IL","entityType":"municipal_police","latitude":40.1071,"longitude":-88.87555,"inactive":false,"membership":"middleton+waunakee","hubLinks":[{"hubId":"waunakee","direction":"hubOut","inactive":false},{"hubId":"middleton","direction":"hubOut","inactive":false}]},{"id":"258","name":"Glenview IL PD","state":"IL","entityType":"municipal_police","latitude":40.51652,"longitude":-89.51555,"inactive":false,"membership":"middleton+waunakee","hubLinks":[{"hubId":"waunakee","direction":"hubOut","inactive":false},{"hubId":"middleton","direction":"hubOut","inactive":false}]},{"id":"259","name":"Glenwood IL PD","state":"IL","entityType":"municipal_police","latitude":40.33299,"longitude":-89.41202,"inactive":false,"membership":"middleton_only","hubLinks":[{"hubId":"middleton","direction":"hubIn","inactive":false}]},{"id":"260","name":"Grayslake IL PD","state":"IL","entityType":"municipal_police","latitude":40.01769,"longitude":-88.70614,"inactive":false,"membership":"middleton+waunakee","hubLinks":[{"hubId":"waunakee","direction":"hubOut","inactive":false},{"hubId":"middleton","direction":"bidirectional","inactive":false}]},{"id":"261","name":"Grundy County IL 911","state":"IL","entityType":"dispatch","latitude":40.84122,"longitude":-88.94614,"inactive":false,"membership":"middleton+waunakee","hubLinks":[{"hubId":"waunakee","direction":"hubOut","inactive":false},{"hubId":"middleton","direction":"hubOut","inactive":false}]},{"id":"262","name":"Grundy County IL SO","state":"IL","entityType":"county_sheriff","latitude":40.49299,"longitude":-89.08731,"inactive":false,"membership":"middleton+waunakee","hubLinks":[{"hubId":"waunakee","direction":"hubOut","inactive":false},{"hubId":"middleton","direction":"bidirectional","inactive":false}]},{"id":"263","name":"Gurnee IL PD","state":"IL","entityType":"municipal_police","latitude":40.1024,"longitude":-88.49437,"inactive":false,"membership":"middleton+waunakee","hubLinks":[{"hubId":"waunakee","direction":"hubOut","inactive":false},{"hubId":"middleton","direction":"hubOut","inactive":false}]},{"id":"264","name":"Hanover Park IL PD","state":"IL","entityType":"municipal_police","latitude":40.62946,"longitude":-88.80967,"inactive":false,"membership":"middleton+waunakee","hubLinks":[{"hubId":"waunakee","direction":"hubOut","inactive":false},{"hubId":"middleton","direction":"bidirectional","inactive":false}]},{"id":"265","name":"Harper Community College IL PD","state":"IL","entityType":"university","latitude":40.30475,"longitude":-88.93202,"inactive":false,"membership":"middleton+waunakee","hubLinks":[{"hubId":"waunakee","direction":"hubOut","inactive":false},{"hubId":"middleton","direction":"hubOut","inactive":false}]},{"id":"266","name":"Harvey IL PD","state":"IL","entityType":"municipal_police","latitude":40.85063,"longitude":-89.1579,"inactive":false,"membership":"middleton+waunakee","hubLinks":[{"hubId":"waunakee","direction":"hubOut","inactive":false},{"hubId":"middleton","direction":"bidirectional","inactive":false}]},{"id":"267","name":"Harwood Heights IL PD","state":"IL","entityType":"municipal_police","latitude":40.39887,"longitude":-88.62614,"inactive":false,"membership":"waunakee_only","hubLinks":[{"hubId":"waunakee","direction":"bidirectional","inactive":false}]},{"id":"268","name":"Hawthorn Woods IL PD","state":"IL","entityType":"municipal_police","latitude":40.40357,"longitude":-89.24261,"inactive":false,"membership":"middleton+waunakee","hubLinks":[{"hubId":"waunakee","direction":"hubOut","inactive":false},{"hubId":"middleton","direction":"hubOut","inactive":false}]},{"id":"269","name":"Hazel Crest IL PD","state":"IL","entityType":"municipal_police","latitude":40.91181,"longitude":-89.25202,"inactive":false,"membership":"middleton+waunakee","hubLinks":[{"hubId":"waunakee","direction":"hubOut","inactive":false},{"hubId":"middleton","direction":"bidirectional","inactive":false}]},{"id":"270","name":"Henry County IL SO","state":"IL","entityType":"county_sheriff","latitude":40.76593,"longitude":-88.60261,"inactive":false,"membership":"middleton+waunakee","hubLinks":[{"hubId":"waunakee","direction":"bidirectional","inactive":false},{"hubId":"middleton","direction":"bidirectional","inactive":false}]},{"id":"271","name":"Herrin IL PD","state":"IL","entityType":"municipal_police","latitude":40.00357,"longitude":-89.33673,"inactive":false,"membership":"middleton+waunakee","hubLinks":[{"hubId":"waunakee","direction":"hubOut","inactive":false},{"hubId":"middleton","direction":"bidirectional","inactive":false}]},{"id":"272","name":"Hickory Hills IL PD","state":"IL","entityType":"municipal_police","latitude":39.88122,"longitude":-89.0779,"inactive":false,"membership":"middleton+waunakee","hubLinks":[{"hubId":"waunakee","direction":"hubOut","inactive":false},{"hubId":"middleton","direction":"bidirectional","inactive":false}]},{"id":"273","name":"Highland Park IL PD","state":"IL","entityType":"municipal_police","latitude":39.97534,"longitude":-89.30378,"inactive":false,"membership":"middleton+waunakee","hubLinks":[{"hubId":"waunakee","direction":"hubOut","inactive":false},{"hubId":"middleton","direction":"hubOut","inactive":false}]},{"id":"274","name":"Hillside IL PD","state":"IL","entityType":"municipal_police","latitude":40.28122,"longitude":-88.97908,"inactive":false,"membership":"middleton_only","hubLinks":[{"hubId":"middleton","direction":"hubIn","inactive":false}]},{"id":"275","name":"Hinckley IL PD","state":"IL","entityType":"municipal_police","latitude":40.0224,"longitude":-89.44967,"inactive":false,"membership":"middleton+waunakee","hubLinks":[{"hubId":"waunakee","direction":"hubOut","inactive":false},{"hubId":"middleton","direction":"bidirectional","inactive":false}]},{"id":"276","name":"Hinsdale IL PD","state":"IL","entityType":"municipal_police","latitude":40.68593,"longitude":-89.08261,"inactive":false,"membership":"waunakee_only","hubLinks":[{"hubId":"waunakee","direction":"hubOut","inactive":false}]},{"id":"277","name":"Hodgkins IL PD","state":"IL","entityType":"municipal_police","latitude":39.93299,"longitude":-88.57437,"inactive":false,"membership":"middleton+waunakee","hubLinks":[{"hubId":"waunakee","direction":"hubOut","inactive":false},{"hubId":"middleton","direction":"hubOut","inactive":false}]},{"id":"278","name":"Hoffman Estates IL PD","state":"IL","entityType":"municipal_police","latitude":40.86946,"longitude":-89.12496,"inactive":false,"membership":"middleton_only","hubLinks":[{"hubId":"middleton","direction":"hubOut","inactive":false}]},{"id":"279","name":"Homewood IL PD","state":"IL","entityType":"municipal_police","latitude":40.87416,"longitude":-88.56496,"inactive":false,"membership":"middleton_only","hubLinks":[{"hubId":"middleton","direction":"hubIn","inactive":false}]},{"id":"280","name":"Hoopeston IL PD","state":"IL","entityType":"municipal_police","latitude":40.3471,"longitude":-89.53908,"inactive":false,"membership":"middleton+waunakee","hubLinks":[{"hubId":"waunakee","direction":"bidirectional","inactive":false},{"hubId":"middleton","direction":"bidirectional","inactive":false}]},{"id":"281","name":"Hume PD IL","state":"IL","entityType":"municipal_police","latitude":40.28122,"longitude":-88.82849,"inactive":false,"membership":"middleton_only","hubLinks":[{"hubId":"middleton","direction":"hubIn","inactive":false}]},{"id":"282","name":"Huntley IL PD","state":"IL","entityType":"municipal_police","latitude":39.93299,"longitude":-88.52731,"inactive":false,"membership":"middleton+waunakee","hubLinks":[{"hubId":"waunakee","direction":"hubOut","inactive":false},{"hubId":"middleton","direction":"hubOut","inactive":false}]},{"id":"283","name":"Illinois Attorney General","state":"IL","entityType":"state_agency","latitude":40.80357,"longitude":-88.96025,"inactive":false,"membership":"middleton+waunakee","hubLinks":[{"hubId":"waunakee","direction":"hubOut","inactive":false},{"hubId":"middleton","direction":"bidirectional","inactive":false}]},{"id":"284","name":"Illinois State Police","state":"IL","entityType":"state_agency","latitude":39.89063,"longitude":-89.09673,"inactive":false,"membership":"middleton+waunakee","hubLinks":[{"hubId":"waunakee","direction":"hubOut","inactive":false},{"hubId":"middleton","direction":"hubOut","inactive":false}]},{"id":"285","name":"Indian Head Park IL PD","state":"IL","entityType":"municipal_police","latitude":40.5024,"longitude":-88.60261,"inactive":false,"membership":"middleton+waunakee","hubLinks":[{"hubId":"waunakee","direction":"hubOut","inactive":false},{"hubId":"middleton","direction":"hubOut","inactive":false}]},{"id":"286","name":"Inverness IL PD","state":"IL","entityType":"municipal_police","latitude":39.74946,"longitude":-89.35084,"inactive":false,"membership":"middleton+waunakee","hubLinks":[{"hubId":"waunakee","direction":"hubOut","inactive":false},{"hubId":"middleton","direction":"hubOut","inactive":false}]},{"id":"287","name":"Iroquois IL SO","state":"IL","entityType":"county_sheriff","latitude":40.76122,"longitude":-88.62143,"inactive":false,"membership":"middleton_only","hubLinks":[{"hubId":"middleton","direction":"hubIn","inactive":false}]},{"id":"288","name":"Itasca IL PD","state":"IL","entityType":"municipal_police","latitude":39.91416,"longitude":-88.65437,"inactive":false,"membership":"middleton_only","hubLinks":[{"hubId":"middleton","direction":"hubIn","inactive":false}]},{"id":"289","name":"Jacksonville IL PD","state":"IL","entityType":"municipal_police","latitude":40.57299,"longitude":-89.4732,"inactive":false,"membership":"middleton+waunakee","hubLinks":[{"hubId":"waunakee","direction":"hubOut","inactive":false},{"hubId":"middleton","direction":"bidirectional","inactive":false}]},{"id":"290","name":"Johnsburg IL PD","state":"IL","entityType":"municipal_police","latitude":39.79181,"longitude":-88.94143,"inactive":false,"membership":"middleton+waunakee","hubLinks":[{"hubId":"waunakee","direction":"bidirectional","inactive":false},{"hubId":"middleton","direction":"bidirectional","inactive":false}]},{"id":"291","name":"Johnston City IL PD","state":"IL","entityType":"municipal_police","latitude":39.98946,"longitude":-89.20496,"inactive":false,"membership":"middleton+waunakee","hubLinks":[{"hubId":"waunakee","direction":"hubOut","inactive":false},{"hubId":"middleton","direction":"bidirectional","inactive":false}]},{"id":"292","name":"Joliet IL PD","state":"IL","entityType":"municipal_police","latitude":40.2624,"longitude":-88.72967,"inactive":false,"membership":"middleton+waunakee","hubLinks":[{"hubId":"waunakee","direction":"hubOut","inactive":false},{"hubId":"middleton","direction":"bidirectional","inactive":false}]},{"id":"293","name":"Joliet Junior College IL PD","state":"IL","entityType":"university","latitude":40.33299,"longitude":-88.72967,"inactive":false,"membership":"middleton+waunakee","hubLinks":[{"hubId":"waunakee","direction":"hubOut","inactive":false},{"hubId":"middleton","direction":"bidirectional","inactive":false}]},{"id":"294","name":"Justice IL PD","state":"IL","entityType":"municipal_police","latitude":39.95652,"longitude":-88.40025,"inactive":false,"membership":"middleton+waunakee","hubLinks":[{"hubId":"waunakee","direction":"hubOut","inactive":false},{"hubId":"middleton","direction":"bidirectional","inactive":false}]},{"id":"295","name":"Kane County Forest Preserve IL PD","state":"IL","entityType":"municipal_police","latitude":40.48357,"longitude":-88.39555,"inactive":false,"membership":"middleton+waunakee","hubLinks":[{"hubId":"waunakee","direction":"hubOut","inactive":false},{"hubId":"middleton","direction":"bidirectional","inactive":false}]},{"id":"296","name":"Kane County IL SO","state":"IL","entityType":"county_sheriff","latitude":40.5024,"longitude":-88.41908,"inactive":false,"membership":"middleton+waunakee","hubLinks":[{"hubId":"waunakee","direction":"hubOut","inactive":false},{"hubId":"middleton","direction":"hubOut","inactive":false}]},{"id":"297","name":"Kankakee County IL SO","state":"IL","entityType":"county_sheriff","latitude":40.1071,"longitude":-89.48731,"inactive":false,"membership":"middleton+waunakee","hubLinks":[{"hubId":"waunakee","direction":"hubOut","inactive":false},{"hubId":"middleton","direction":"bidirectional","inactive":false}]},{"id":"298","name":"Kankakee IL PD","state":"IL","entityType":"municipal_police","latitude":40.30475,"longitude":-88.48025,"inactive":false,"membership":"middleton+waunakee","hubLinks":[{"hubId":"waunakee","direction":"hubOut","inactive":false},{"hubId":"middleton","direction":"hubOut","inactive":false}]},{"id":"299","name":"KenCom Public Safety Dispatch","state":"IL","entityType":"dispatch","latitude":39.97534,"longitude":-88.94614,"inactive":false,"membership":"middleton+waunakee","hubLinks":[{"hubId":"waunakee","direction":"hubOut","inactive":false},{"hubId":"middleton","direction":"hubOut","inactive":false}]},{"id":"300","name":"Kendall County IL SO","state":"IL","entityType":"county_sheriff","latitude":40.46475,"longitude":-89.30849,"inactive":false,"membership":"middleton+waunakee","hubLinks":[{"hubId":"waunakee","direction":"hubOut","inactive":false},{"hubId":"middleton","direction":"hubOut","inactive":false}]},{"id":"301","name":"Kewanee IL PD","state":"IL","entityType":"municipal_police","latitude":40.6671,"longitude":-88.48496,"inactive":false,"membership":"middleton+waunakee","hubLinks":[{"hubId":"waunakee","direction":"hubOut","inactive":false},{"hubId":"middleton","direction":"bidirectional","inactive":false}]},{"id":"302","name":"Knox County IL SO","state":"IL","entityType":"county_sheriff","latitude":40.89299,"longitude":-89.3979,"inactive":false,"membership":"middleton+waunakee","hubLinks":[{"hubId":"waunakee","direction":"hubOut","inactive":false},{"hubId":"middleton","direction":"bidirectional","inactive":false}]},{"id":"303","name":"La Grange IL PD","state":"IL","entityType":"municipal_police","latitude":40.40357,"longitude":-88.56496,"inactive":false,"membership":"middleton+waunakee","hubLinks":[{"hubId":"waunakee","direction":"hubOut","inactive":false},{"hubId":"middleton","direction":"hubOut","inactive":false}]},{"id":"304","name":"La Grange Park IL PD","state":"IL","entityType":"municipal_police","latitude":40.76593,"longitude":-89.04025,"inactive":false,"membership":"middleton+waunakee","hubLinks":[{"hubId":"waunakee","direction":"hubOut","inactive":false},{"hubId":"middleton","direction":"bidirectional","inactive":false}]},{"id":"305","name":"LaSalle Co. IL SO - New","state":"IL","entityType":"county_sheriff","latitude":39.79181,"longitude":-89.52496,"inactive":false,"membership":"middleton+waunakee","hubLinks":[{"hubId":"waunakee","direction":"hubOut","inactive":false},{"hubId":"middleton","direction":"bidirectional","inactive":false}]},{"id":"306","name":"Ladd IL PD","state":"IL","entityType":"municipal_police","latitude":40.01299,"longitude":-88.72025,"inactive":false,"membership":"middleton+waunakee","hubLinks":[{"hubId":"waunakee","direction":"hubOut","inactive":false},{"hubId":"middleton","direction":"bidirectional","inactive":false}]},{"id":"307","name":"Lake County Forest Preserves IL PD","state":"IL","entityType":"municipal_police","latitude":40.2624,"longitude":-88.87555,"inactive":false,"membership":"middleton_only","hubLinks":[{"hubId":"middleton","direction":"hubOut","inactive":false}]},{"id":"308","name":"Lake County IL SO","state":"IL","entityType":"county_sheriff","latitude":40.08828,"longitude":-88.82849,"inactive":false,"membership":"middleton+waunakee","hubLinks":[{"hubId":"waunakee","direction":"hubOut","inactive":false},{"hubId":"middleton","direction":"hubOut","inactive":false}]},{"id":"309","name":"Lake Forest IL PD","state":"IL","entityType":"municipal_police","latitude":40.06475,"longitude":-88.64967,"inactive":false,"membership":"middleton+waunakee","hubLinks":[{"hubId":"waunakee","direction":"hubOut","inactive":false},{"hubId":"middleton","direction":"hubOut","inactive":false}]},{"id":"310","name":"Lake In The Hills IL PD","state":"IL","entityType":"municipal_police","latitude":39.90946,"longitude":-89.06378,"inactive":false,"membership":"middleton+waunakee","hubLinks":[{"hubId":"waunakee","direction":"hubOut","inactive":false},{"hubId":"middleton","direction":"hubOut","inactive":false}]},{"id":"311","name":"Lake Villa IL PD","state":"IL","entityType":"municipal_police","latitude":39.90005,"longitude":-88.48967,"inactive":false,"membership":"middleton+waunakee","hubLinks":[{"hubId":"waunakee","direction":"hubOut","inactive":false},{"hubId":"middleton","direction":"hubOut","inactive":false}]},{"id":"312","name":"Lake Zurich IL PD","state":"IL","entityType":"municipal_police","latitude":40.38005,"longitude":-89.17673,"inactive":false,"membership":"middleton+waunakee","hubLinks":[{"hubId":"waunakee","direction":"hubOut","inactive":false},{"hubId":"middleton","direction":"hubOut","inactive":false}]},{"id":"313","name":"Lansing IL PD","state":"IL","entityType":"municipal_police","latitude":40.41769,"longitude":-88.40496,"inactive":false,"membership":"middleton_only","hubLinks":[{"hubId":"middleton","direction":"hubIn","inactive":false}]},{"id":"314","name":"Lasalle IL PD","state":"IL","entityType":"municipal_police","latitude":40.29534,"longitude":-88.98378,"inactive":false,"membership":"middleton+waunakee","hubLinks":[{"hubId":"waunakee","direction":"hubOut","inactive":false},{"hubId":"middleton","direction":"bidirectional","inactive":false}]},{"id":"315","name":"Lawrence County IL SO","state":"IL","entityType":"county_sheriff","latitude":40.00828,"longitude":-89.01202,"inactive":false,"membership":"middleton+waunakee","hubLinks":[{"hubId":"waunakee","direction":"hubOut","inactive":false},{"hubId":"middleton","direction":"hubOut","inactive":false}]},{"id":"316","name":"LeRoy IL PD","state":"IL","entityType":"municipal_police","latitude":40.32357,"longitude":-89.43555,"inactive":false,"membership":"middleton+waunakee","hubLinks":[{"hubId":"waunakee","direction":"hubOut","inactive":false},{"hubId":"middleton","direction":"hubOut","inactive":false}]},{"id":"317","name":"Lee County IL SO","state":"IL","entityType":"county_sheriff","latitude":40.41299,"longitude":-89.44496,"inactive":false,"membership":"middleton+waunakee","hubLinks":[{"hubId":"waunakee","direction":"bidirectional","inactive":false},{"hubId":"middleton","direction":"bidirectional","inactive":false}]},{"id":"318","name":"Lena IL PD","state":"IL","entityType":"municipal_police","latitude":40.54946,"longitude":-88.53202,"inactive":false,"membership":"waunakee_only","hubLinks":[{"hubId":"waunakee","direction":"hubOut","inactive":false}]},{"id":"319","name":"Lincolnshire IL PD","state":"IL","entityType":"municipal_police","latitude":39.84828,"longitude":-89.13437,"inactive":false,"membership":"middleton_only","hubLinks":[{"hubId":"middleton","direction":"hubOut","inactive":false}]},{"id":"320","name":"Lisle IL PD","state":"IL","entityType":"municipal_police","latitude":40.38946,"longitude":-88.97437,"inactive":false,"membership":"middleton+waunakee","hubLinks":[{"hubId":"waunakee","direction":"hubOut","inactive":false},{"hubId":"middleton","direction":"hubOut","inactive":false}]},{"id":"321","name":"Livingston County IL SO","state":"IL","entityType":"county_sheriff","latitude":40.41299,"longitude":-89.42143,"inactive":false,"membership":"middleton+waunakee","hubLinks":[{"hubId":"waunakee","direction":"hubOut","inactive":false},{"hubId":"middleton","direction":"bidirectional","inactive":false}]},{"id":"322","name":"Lombard IL PD","state":"IL","entityType":"municipal_police","latitude":40.88357,"longitude":-89.52496,"inactive":false,"membership":"middleton+waunakee","hubLinks":[{"hubId":"waunakee","direction":"hubOut","inactive":false},{"hubId":"middleton","direction":"hubOut","inactive":false}]},{"id":"323","name":"Loves Park IL PD","state":"IL","entityType":"municipal_police","latitude":40.01769,"longitude":-89.24261,"inactive":false,"membership":"middleton+waunakee","hubLinks":[{"hubId":"waunakee","direction":"bidirectional","inactive":false},{"hubId":"middleton","direction":"hubOut","inactive":false}]},{"id":"324","name":"Lyons IL PD","state":"IL","entityType":"municipal_police","latitude":39.82475,"longitude":-89.32261,"inactive":false,"membership":"middleton+waunakee","hubLinks":[{"hubId":"waunakee","direction":"bidirectional","inactive":false},{"hubId":"middleton","direction":"bidirectional","inactive":false}]},